$GNRMC,115936.00,A,5019.78254,N,00845.57565,E,0.037,,201025,,,D*6E
$GNVTG,,T,,M,0.037,N,0.069,K,D*33
$GNGGA,115936.00,5019.78254,N,00845.57565,E,2,12,0.76,172.3,M,47.4,M,,0000*46
$GNGSA,A,3,14,22,07,13,21,05,20,30,15,18,,,1.49,0.76,1.28*10
$GNGSA,A,3,69,80,73,79,71,86,,,,,,,1.49,0.76,1.28*1F
$GPGSV,4,1,15,05,55,229,35,07,27,065,31,08,09,038,,13,66,298,29*71
$GPGSV,4,2,15,14,51,136,38,15,34,297,25,18,14,312,27,20,31,197,42*7D
$GPGSV,4,3,15,21,38,185,50,22,40,155,42,23,02,329,,27,01,010,*76
$GPGSV,4,4,15,30,57,067,40,40,18,126,40,49,32,185,49*48
$GLGSV,2,1,08,69,37,125,49,70,71,325,,71,23,315,23,73,16,206,47*6E
$GLGSV,2,2,08,79,47,044,31,80,68,176,47,86,10,298,34,87,14,339,*6F
$GNGLL,5019.78254,N,00845.57565,E,115936.00,A,D*77
$GNRMC,115937.00,A,5019.78251,N,00845.57567,E,0.023,,201025,,,D*6D
$GNVTG,,T,,M,0.023,N,0.043,K,D*3E
$GNGGA,115937.00,5019.78251,N,00845.57567,E,2,12,0.76,172.4,M,47.4,M,,0000*47
$GNGSA,A,3,14,22,07,13,21,05,20,30,15,18,,,1.49,0.76,1.28*10
$GNGSA,A,3,69,80,73,79,71,86,,,,,,,1.49,0.76,1.28*1F
$GPGSV,4,1,15,05,55,229,36,07,27,065,31,08,09,038,,13,66,298,29*72
$GPGSV,4,2,15,14,51,136,39,15,34,297,24,18,14,312,27,20,31,197,42*7D
$GPGSV,4,3,15,21,38,185,50,22,40,155,42,23,02,329,,27,01,010,*76
$GPGSV,4,4,15,30,57,067,40,40,18,126,40,49,32,185,49*48
$GLGSV,2,1,08,69,37,125,49,70,71,325,,71,23,315,23,73,16,206,47*6E
$GLGSV,2,2,08,79,47,044,32,80,68,176,47,86,10,298,34,87,14,339,*6C
$GNGLL,5019.78251,N,00845.57567,E,115937.00,A,D*71
$GNRMC,115938.00,A,5019.78248,N,00845.57567,E,0.019,,201025,,,D*63
$GNVTG,,T,,M,0.019,N,0.035,K,D*36
$GNGGA,115938.00,5019.78248,N,00845.57567,E,2,12,0.76,172.4,M,47.4,M,,0000*40
$GNGSA,A,3,14,22,07,13,21,05,20,30,15,18,,,1.49,0.76,1.28*10
$GNGSA,A,3,69,80,73,79,71,86,,,,,,,1.49,0.76,1.28*1F
$GPGSV,4,1,15,05,55,229,36,07,27,065,32,08,09,038,,13,66,298,29*71
$GPGSV,4,2,15,14,51,136,39,15,34,297,23,18,14,312,27,20,31,197,42*7A
$GPGSV,4,3,15,21,38,185,50,22,40,155,42,23,02,329,,27,01,010,*76
$GPGSV,4,4,15,30,57,067,39,40,18,126,40,49,32,185,49*46
$GLGSV,2,1,08,69,37,125,49,70,71,325,,71,23,315,23,73,16,206,47*6E
$GLGSV,2,2,08,79,47,044,32,80,68,176,47,86,10,298,34,87,14,339,*6C
$GNGLL,5019.78248,N,00845.57567,E,115938.00,A,D*76
$GNRMC,115939.00,A,5019.78244,N,00845.57568,E,0.039,,201025,,,D*63
$GNVTG,,T,,M,0.039,N,0.071,K,D*34
$GNGGA,115939.00,5019.78244,N,00845.57568,E,2,12,0.73,172.5,M,47.4,M,,0000*46
$GNGSA,A,3,14,22,07,13,21,05,20,30,15,18,,,1.47,0.73,1.28*1B
$GNGSA,A,3,69,80,73,79,71,86,,,,,,,1.47,0.73,1.28*14
$GPGSV,4,1,15,05,55,229,36,07,27,065,32,08,09,038,,13,66,298,28*70
$GPGSV,4,2,15,14,51,136,38,15,34,297,23,18,14,312,27,20,31,197,42*7B
$GPGSV,4,3,15,21,38,185,50,22,40,155,42,23,02,329,,27,01,010,*76
$GPGSV,4,4,15,30,57,067,39,40,18,126,40,49,32,185,49*46
$GLGSV,2,1,08,69,37,125,49,70,71,325,,71,23,315,23,73,16,206,47*6E
$GLGSV,2,2,08,79,47,044,32,80,68,176,47,86,10,298,34,87,14,339,*6C
$GNGLL,5019.78244,N,00845.57568,E,115939.00,A,D*74
$GNRMC,115940.00,A,5019.78241,N,00845.57567,E,0.033,,201025,,,D*6D
$GNVTG,,T,,M,0.033,N,0.062,K,D*3C
$GNGGA,115940.00,5019.78241,N,00845.57567,E,2,12,0.73,172.6,M,47.4,M,,0000*41
$GNGSA,A,3,14,22,07,13,21,05,20,30,15,18,,,1.47,0.73,1.28*1B
$GNGSA,A,3,69,80,73,79,71,86,,,,,,,1.47,0.73,1.28*14
$GPGSV,4,1,15,05,55,229,37,07,27,065,32,08,09,038,,13,66,298,28*71
$GPGSV,4,2,15,14,51,136,38,15,34,297,24,18,14,312,27,20,31,197,42*7C
$GPGSV,4,3,15,21,38,185,50,22,40,155,42,23,02,329,,27,01,010,*76
$GPGSV,4,4,15,30,57,067,39,40,18,126,40,49,32,185,49*46
$GLGSV,2,1,08,69,37,125,49,70,71,325,,71,23,315,23,73,16,206,47*6E
$GLGSV,2,2,08,79,47,044,32,80,68,176,47,86,10,298,34,87,14,339,*6C
$GNGLL,5019.78241,N,00845.57567,E,115940.00,A,D*70
$GNRMC,115941.00,A,5019.78237,N,00845.57567,E,0.055,,201025,,,D*6D
$GNVTG,,T,,M,0.055,N,0.102,K,D*3B
$GNGGA,115941.00,5019.78237,N,00845.57567,E,2,12,0.73,172.7,M,47.4,M,,0000*40
$GNGSA,A,3,14,22,07,13,21,05,20,30,15,18,,,1.47,0.73,1.28*1B
$GNGSA,A,3,69,80,73,79,71,86,,,,,,,1.47,0.73,1.28*14
$GPGSV,4,1,15,05,55,229,37,07,27,065,33,08,09,038,,13,66,298,28*70
$GPGSV,4,2,15,14,51,136,38,15,34,297,23,18,14,312,27,20,31,197,42*7B
$GPGSV,4,3,15,21,38,185,50,22,40,155,42,23,02,329,,27,01,010,*76
$GPGSV,4,4,15,30,57,067,39,40,18,126,40,49,32,185,49*46
$GLGSV,2,1,08,69,37,125,49,70,71,325,,71,23,315,24,73,16,206,47*69
$GLGSV,2,2,08,79,47,044,32,80,68,176,47,86,10,298,34,87,14,339,*6C
$GNGLL,5019.78237,N,00845.57567,E,115941.00,A,D*70
$GNRMC,115942.00,A,5019.78233,N,00845.57566,E,0.043,,201025,,,D*6C
$GNVTG,,T,,M,0.043,N,0.079,K,D*31
$GNGGA,115942.00,5019.78233,N,00845.57566,E,2,12,0.73,172.8,M,47.4,M,,0000*49
$GNGSA,A,3,14,22,07,13,21,05,20,30,15,18,,,1.47,0.73,1.28*1B
$GNGSA,A,3,69,80,73,79,71,86,,,,,,,1.47,0.73,1.28*14
$GPGSV,4,1,15,05,55,229,37,07,27,065,33,08,09,038,,13,66,298,29*71
$GPGSV,4,2,15,14,51,136,39,15,34,297,24,18,14,312,27,20,31,197,42*7D
$GPGSV,4,3,15,21,38,185,50,22,40,155,42,23,02,329,,27,01,010,*76
$GPGSV,4,4,15,30,57,067,39,40,18,126,40,49,32,185,49*46
$GLGSV,2,1,08,69,37,125,49,70,71,325,,71,23,315,25,73,16,206,47*68
$GLGSV,2,2,08,79,47,044,32,80,68,176,47,86,10,298,34,87,14,339,21*6F
$GNGLL,5019.78233,N,00845.57566,E,115942.00,A,D*76
$GNRMC,115943.00,A,5019.78231,N,00845.57562,E,0.103,,201025,,,D*6E
$GNVTG,,T,,M,0.103,N,0.191,K,D*33
$GNGGA,115943.00,5019.78231,N,00845.57562,E,2,12,0.73,172.8,M,47.4,M,,0000*4E
$GNGSA,A,3,14,22,07,13,21,05,20,30,15,18,,,1.47,0.73,1.28*1B
$GNGSA,A,3,69,80,73,79,71,86,,,,,,,1.47,0.73,1.28*14
$GPGSV,4,1,15,05,55,229,38,07,27,065,33,08,09,038,,13,66,298,29*7E
$GPGSV,4,2,15,14,51,136,38,15,34,297,22,18,14,312,27,20,31,197,42*7A
$GPGSV,4,3,15,21,38,185,50,22,40,155,42,23,02,329,,27,01,010,*76
$GPGSV,4,4,15,30,57,067,39,40,18,126,40,49,32,185,49*46
$GLGSV,2,1,08,69,37,125,49,70,71,325,,71,23,315,25,73,16,206,47*68
$GLGSV,2,2,08,79,47,044,32,80,68,176,46,86,10,298,34,87,14,339,21*6E
$GNGLL,5019.78231,N,00845.57562,E,115943.00,A,D*71
$GNRMC,115944.00,A,5019.78228,N,00845.57562,E,0.070,,201025,,,D*64
$GNVTG,,T,,M,0.070,N,0.131,K,D*3C
$GNGGA,115944.00,5019.78228,N,00845.57562,E,2,12,0.73,172.9,M,47.4,M,,0000*40
$GNGSA,A,3,14,22,07,13,21,05,20,30,15,18,,,1.47,0.73,1.28*1B
$GNGSA,A,3,69,80,73,79,71,86,,,,,,,1.47,0.73,1.28*14
$GPGSV,4,1,15,05,55,229,38,07,27,065,34,08,09,038,,13,66,298,29*79
$GPGSV,4,2,15,14,51,136,37,15,34,297,19,18,14,312,28,20,31,197,42*72
$GPGSV,4,3,15,21,38,185,50,22,40,155,42,23,02,329,,27,01,010,*76
$GPGSV,4,4,15,30,57,067,40,40,18,126,40,49,32,185,49*48
$GLGSV,2,1,08,69,36,126,49,70,71,325,,71,23,315,25,73,16,206,46*6B
$GLGSV,2,2,08,79,47,044,31,80,68,176,46,86,10,298,34,87,14,339,22*6E
$GNGLL,5019.78228,N,00845.57562,E,115944.00,A,D*7E
$GNRMC,115945.00,A,5019.78225,N,00845.57562,E,0.053,,201025,,,D*69
$GNVTG,,T,,M,0.053,N,0.098,K,D*3F
$GNGGA,115945.00,5019.78225,N,00845.57562,E,2,12,0.73,173.0,M,47.4,M,,0000*44
$GNGSA,A,3,14,22,07,13,21,05,20,30,15,18,,,1.47,0.73,1.28*1B
$GNGSA,A,3,69,80,73,79,71,86,,,,,,,1.47,0.73,1.28*14
$GPGSV,4,1,15,05,55,229,38,07,27,065,34,08,09,038,,13,66,298,29*79
$GPGSV,4,2,15,14,51,136,37,15,34,297,17,18,14,312,28,20,31,197,42*7C
$GPGSV,4,3,15,21,38,185,50,22,40,155,42,23,02,329,,27,01,010,*76
$GPGSV,4,4,15,30,57,067,40,40,18,126,40,49,32,185,49*48
$GLGSV,2,1,08,69,36,126,49,70,71,325,,71,23,315,25,73,16,206,47*6A
$GLGSV,2,2,08,79,47,044,31,80,68,176,46,86,10,298,35,87,14,339,22*6F
$GNGLL,5019.78225,N,00845.57562,E,115945.00,A,D*72
$GNRMC,115946.00,A,5019.78223,N,00845.57562,E,0.015,,201025,,,D*6E
$GNVTG,,T,,M,0.015,N,0.028,K,D*36
$GNGGA,115946.00,5019.78223,N,00845.57562,E,2,12,0.73,173.1,M,47.4,M,,0000*40
$GNGSA,A,3,14,22,07,13,21,05,20,30,15,18,,,1.47,0.73,1.28*1B
$GNGSA,A,3,69,80,73,79,71,86,,,,,,,1.47,0.73,1.28*14
$GPGSV,4,1,15,05,55,229,39,07,27,065,35,08,09,038,,13,66,298,29*79
$GPGSV,4,2,15,14,51,136,38,15,34,297,15,18,14,312,28,20,31,197,42*71
$GPGSV,4,3,15,21,38,185,50,22,40,155,42,23,02,329,,27,01,010,*76
$GPGSV,4,4,15,30,57,067,40,40,18,126,40,49,32,185,49*48
$GLGSV,2,1,08,69,36,126,49,70,71,325,,71,24,315,24,73,16,206,46*6D
$GLGSV,2,2,08,79,47,044,30,80,68,176,46,86,10,298,35,87,14,339,23*6F
$GNGLL,5019.78223,N,00845.57562,E,115946.00,A,D*77
$GNRMC,115947.00,A,5019.78219,N,00845.57564,E,0.025,,201025,,,D*63
$GNVTG,,T,,M,0.025,N,0.047,K,D*3C
$GNGGA,115947.00,5019.78219,N,00845.57564,E,2,12,0.73,173.2,M,47.4,M,,0000*4D
$GNGSA,A,3,14,22,07,13,21,05,20,30,15,18,,,1.47,0.73,1.28*1B
$GNGSA,A,3,69,80,73,79,71,86,,,,,,,1.47,0.73,1.28*14
$GPGSV,4,1,15,05,55,229,39,07,27,065,35,08,09,038,,13,66,298,29*79
$GPGSV,4,2,15,14,51,136,37,15,34,297,17,18,14,312,27,20,31,197,42*73
$GPGSV,4,3,15,21,38,185,50,22,40,155,41,23,02,329,,27,01,010,*75
$GPGSV,4,4,15,30,57,067,40,40,18,126,40,49,32,185,49*48
$GLGSV,2,1,08,69,36,126,49,70,71,325,,71,24,315,25,73,16,206,46*6C
$GLGSV,2,2,08,79,47,044,29,80,68,176,46,86,10,298,35,87,14,339,23*67
$GNGLL,5019.78219,N,00845.57564,E,115947.00,A,D*79
$GNRMC,115948.00,A,5019.78215,N,00845.57567,E,0.011,,201025,,,D*64
$GNVTG,,T,,M,0.011,N,0.020,K,D*3A
$GNGGA,115948.00,5019.78215,N,00845.57567,E,2,12,0.73,173.3,M,47.4,M,,0000*4C
$GNGSA,A,3,14,22,07,13,21,05,20,30,15,18,,,1.47,0.73,1.28*1B
$GNGSA,A,3,69,80,73,79,71,86,,,,,,,1.47,0.73,1.28*14
$GPGSV,4,1,15,05,55,229,39,07,27,065,35,08,09,038,,13,66,298,29*79
$GPGSV,4,2,15,14,51,136,38,15,34,297,20,18,14,312,28,20,31,197,42*77
$GPGSV,4,3,15,21,38,185,50,22,40,155,42,23,02,329,,27,01,010,21*75
$GPGSV,4,4,15,30,57,067,41,40,18,126,40,49,32,185,49*49
$GLGSV,2,1,08,69,36,126,48,70,71,325,,71,24,315,25,73,16,206,46*6D
$GLGSV,2,2,08,79,47,044,29,80,68,176,46,86,10,298,35,87,14,339,24*60
$GNGLL,5019.78215,N,00845.57567,E,115948.00,A,D*79
$GNRMC,115949.00,A,5019.78213,N,00845.57568,E,0.080,,201025,,,D*64
$GNVTG,,T,,M,0.080,N,0.148,K,D*3D
$GNGGA,115949.00,5019.78213,N,00845.57568,E,2,12,0.73,173.3,M,47.4,M,,0000*44
$GNGSA,A,3,14,22,07,13,21,05,20,30,15,18,,,1.47,0.73,1.28*1B
$GNGSA,A,3,69,80,73,79,71,86,,,,,,,1.47,0.73,1.28*14
$GPGSV,4,1,15,05,55,229,39,07,27,065,35,08,09,038,,13,66,298,29*79
$GPGSV,4,2,15,14,51,136,37,15,34,297,20,18,14,312,28,20,31,197,41*7B
$GPGSV,4,3,15,21,38,185,50,22,40,155,42,23,02,329,,27,01,010,22*76
$GPGSV,4,4,15,30,57,067,41,40,18,126,40,49,32,185,49*49
$GLGSV,2,1,08,69,36,126,48,70,71,325,,71,24,315,26,73,16,206,46*6E
$GLGSV,2,2,08,79,47,044,29,80,68,176,46,86,10,298,35,87,14,339,24*60
$GNGLL,5019.78213,N,00845.57568,E,115949.00,A,D*71
$GNRMC,115950.00,A,5019.78209,N,00845.57568,E,0.001,,201025,,,D*6E
$GNVTG,,T,,M,0.001,N,0.002,K,D*3B
$GNGGA,115950.00,5019.78209,N,00845.57568,E,2,12,0.73,173.4,M,47.4,M,,0000*40
$GNGSA,A,3,14,22,07,13,21,05,20,30,15,18,,,1.47,0.73,1.28*1B
$GNGSA,A,3,69,80,73,79,71,86,,,,,,,1.47,0.73,1.28*14
$GPGSV,4,1,15,05,55,229,39,07,27,065,35,08,09,038,,13,66,298,28*78
$GPGSV,4,2,15,14,51,136,38,15,34,297,20,18,14,312,28,20,31,197,41*74
$GPGSV,4,3,15,21,38,185,50,22,40,155,41,23,02,329,,27,01,010,21*76
$GPGSV,4,4,15,30,57,067,41,40,18,126,40,49,32,185,49*49
$GLGSV,2,1,08,69,36,126,49,70,71,325,,71,24,315,26,73,16,206,46*6F
$GLGSV,2,2,08,79,47,044,29,80,68,176,46,86,10,298,35,87,14,339,24*60
$GNGLL,5019.78209,N,00845.57568,E,115950.00,A,D*72
$GNRMC,115951.00,A,5019.78205,N,00845.57570,E,0.027,,201025,,,D*6E
$GNVTG,,T,,M,0.027,N,0.050,K,D*38
$GNGGA,115951.00,5019.78205,N,00845.57570,E,2,12,0.73,173.4,M,47.4,M,,0000*44
$GNGSA,A,3,14,22,07,13,21,05,20,30,15,18,,,1.47,0.73,1.28*1B
$GNGSA,A,3,69,80,73,79,71,86,,,,,,,1.47,0.73,1.28*14
$GPGSV,4,1,15,05,55,229,39,07,27,065,35,08,09,038,,13,66,298,28*78
$GPGSV,4,2,15,14,51,136,38,15,34,297,20,18,14,312,29,20,31,197,41*75
$GPGSV,4,3,15,21,38,185,50,22,40,155,41,23,02,329,,27,01,010,21*76
$GPGSV,4,4,15,30,57,067,41,40,18,126,40,49,32,185,49*49
$GLGSV,2,1,08,69,36,126,49,70,71,325,,71,24,315,26,73,16,206,46*6F
$GLGSV,2,2,08,79,47,044,29,80,68,176,46,86,10,298,35,87,14,339,24*60
$GNGLL,5019.78205,N,00845.57570,E,115951.00,A,D*76
$GNRMC,115952.00,A,5019.78200,N,00845.57573,E,0.033,,201025,,,D*6E
$GNVTG,,T,,M,0.033,N,0.062,K,D*3C
$GNGGA,115952.00,5019.78200,N,00845.57573,E,2,12,0.73,173.4,M,47.4,M,,0000*41
$GNGSA,A,3,14,22,07,13,21,05,20,30,15,18,,,1.47,0.73,1.28*1B
$GNGSA,A,3,69,80,73,79,71,86,,,,,,,1.47,0.73,1.28*14
$GPGSV,4,1,15,05,55,229,39,07,27,065,36,08,09,038,,13,66,298,29*7A
$GPGSV,4,2,15,14,51,136,38,15,34,297,21,18,14,312,29,20,31,197,41*74
$GPGSV,4,3,15,21,38,185,50,22,40,155,41,23,02,329,,27,01,010,21*76
$GPGSV,4,4,15,30,57,067,41,40,18,126,40,49,32,185,49*49
$GLGSV,2,1,08,69,36,126,49,70,71,325,,71,24,315,25,73,16,206,46*6C
$GLGSV,2,2,08,79,47,044,28,80,68,176,46,86,10,298,34,87,14,339,24*60
$GNGLL,5019.78200,N,00845.57573,E,115952.00,A,D*73
$GNRMC,115953.00,A,5019.78198,N,00845.57577,E,0.010,,201025,,,D*68
$GNVTG,,T,,M,0.010,N,0.018,K,D*30
$GNGGA,115953.00,5019.78198,N,00845.57577,E,2,12,0.77,173.4,M,47.4,M,,0000*42
$GNGSA,A,3,14,22,07,13,21,05,20,30,15,18,,,1.49,0.77,1.28*11
$GNGSA,A,3,69,80,73,79,71,86,,,,,,,1.49,0.77,1.28*1E
$GPGSV,4,1,15,05,55,229,39,07,27,065,36,08,09,038,,13,66,298,29*7A
$GPGSV,4,2,15,14,51,136,37,15,34,297,23,18,14,312,29,20,31,197,41*79
$GPGSV,4,3,15,21,38,185,50,22,40,155,41,23,02,329,,27,01,010,20*77
$GPGSV,4,4,15,30,57,067,41,40,18,126,40,49,32,185,49*49
$GLGSV,2,1,08,69,36,126,49,70,71,325,,71,24,315,24,73,16,206,46*6D
$GLGSV,2,2,08,79,47,044,28,80,68,176,47,86,10,298,34,87,14,339,24*61
$GNGLL,5019.78198,N,00845.57577,E,115953.00,A,D*74
$GNRMC,115954.00,A,5019.78196,N,00845.57579,E,0.002,,201025,,,D*6C
$GNVTG,,T,,M,0.002,N,0.004,K,D*3E
$GNGGA,115954.00,5019.78196,N,00845.57579,E,2,12,0.77,173.3,M,47.4,M,,0000*42
$GNGSA,A,3,14,22,07,13,21,05,20,30,15,18,,,1.49,0.77,1.28*11
$GNGSA,A,3,69,80,73,79,71,86,,,,,,,1.49,0.77,1.28*1E
$GPGSV,4,1,15,05,55,229,39,07,27,065,36,08,09,038,,13,66,298,28*7B
$GPGSV,4,2,15,14,51,136,37,15,34,297,25,18,14,312,29,20,31,197,41*7F
$GPGSV,4,3,15,21,38,185,50,22,40,155,41,23,02,329,,27,01,010,20*77
$GPGSV,4,4,15,30,57,067,41,40,18,126,40,49,32,185,49*49
$GLGSV,2,1,08,69,36,126,49,70,71,325,,71,24,315,24,73,16,206,46*6D
$GLGSV,2,2,08,79,46,044,28,80,68,176,47,86,10,298,34,87,14,339,23*67
$GNGLL,5019.78196,N,00845.57579,E,115954.00,A,D*73
$GNRMC,115955.00,A,5019.78193,N,00845.57582,E,0.031,,201025,,,D*6C
$GNVTG,,T,,M,0.031,N,0.057,K,D*38
$GNGGA,115955.00,5019.78193,N,00845.57582,E,2,12,0.77,173.3,M,47.4,M,,0000*42
$GNGSA,A,3,14,22,07,13,21,05,20,30,15,18,,,1.49,0.77,1.28*11
$GNGSA,A,3,69,80,73,79,71,86,,,,,,,1.49,0.77,1.28*1E
$GPGSV,4,1,15,05,55,229,40,07,27,065,36,08,09,038,,13,66,298,28*75
$GPGSV,4,2,15,14,51,136,36,15,34,297,25,18,14,312,29,20,31,197,41*7E
$GPGSV,4,3,15,21,38,185,50,22,40,155,40,23,02,329,,27,01,010,20*76
$GPGSV,4,4,15,30,57,067,41,40,18,126,40,49,32,185,49*49
$GLGSV,2,1,08,69,36,126,49,70,71,325,,71,24,315,22,73,16,206,46*6B
$GLGSV,2,2,08,79,46,044,27,80,69,175,47,86,10,298,34,87,14,339,23*6A
$GNGLL,5019.78193,N,00845.57582,E,115955.00,A,D*73
$GNRMC,115956.00,A,5019.78192,N,00845.57583,E,0.046,,201025,,,D*6F
$GNVTG,,T,,M,0.046,N,0.086,K,D*34
$GNGGA,115956.00,5019.78192,N,00845.57583,E,2,12,0.80,173.3,M,47.4,M,,0000*49
$GNGSA,A,3,14,22,07,13,21,05,20,30,15,18,,,1.67,0.80,1.47*1C
$GNGSA,A,3,69,80,73,79,71,86,,,,,,,1.67,0.80,1.47*13
$GPGSV,4,1,15,05,55,229,39,07,27,065,36,08,09,038,24,13,66,298,27*72
$GPGSV,4,2,15,14,51,136,36,15,34,297,25,18,14,312,28,20,31,197,41*7F
$GPGSV,4,3,15,21,38,185,50,22,40,155,40,23,02,329,,27,01,010,20*76
$GPGSV,4,4,15,30,57,067,41,40,18,126,40,49,32,185,49*49
$GLGSV,2,1,08,69,36,126,49,70,71,325,,71,24,315,21,73,16,206,46*68
$GLGSV,2,2,08,79,46,044,27,80,69,175,47,86,10,298,34,87,14,339,23*6A
$GNGLL,5019.78192,N,00845.57583,E,115956.00,A,D*70
$GNRMC,115957.00,A,5019.78190,N,00845.57582,E,0.014,,201025,,,D*6A
$GNVTG,,T,,M,0.014,N,0.025,K,D*3A
$GNGGA,115957.00,5019.78190,N,00845.57582,E,2,12,0.80,173.3,M,47.4,M,,0000*4B
$GNGSA,A,3,14,22,07,13,21,05,20,30,15,18,,,1.67,0.80,1.47*1C
$GNGSA,A,3,69,80,73,79,71,86,,,,,,,1.67,0.80,1.47*13
$GPGSV,4,1,15,05,55,229,39,07,27,065,36,08,09,038,24,13,66,298,26*73
$GPGSV,4,2,15,14,51,136,35,15,34,297,26,18,14,312,27,20,31,197,40*71
$GPGSV,4,3,15,21,38,185,50,22,40,155,40,23,02,329,,27,01,010,20*76
$GPGSV,4,4,15,30,57,067,41,40,18,126,40,49,32,185,49*49
$GLGSV,2,1,08,69,36,126,49,70,71,325,,71,24,315,22,73,16,206,46*6B
$GLGSV,2,2,08,79,46,044,26,80,69,175,47,86,10,298,34,87,14,339,24*6C
$GNGLL,5019.78190,N,00845.57582,E,115957.00,A,D*72
$GNRMC,115958.00,A,5019.78186,N,00845.57584,E,0.029,,201025,,,D*6A
$GNVTG,,T,,M,0.029,N,0.054,K,D*32
$GNGGA,115958.00,5019.78186,N,00845.57584,E,2,12,0.80,173.3,M,47.4,M,,0000*45
$GNGSA,A,3,14,22,07,13,21,05,20,30,15,18,,,1.67,0.80,1.47*1C
$GNGSA,A,3,69,80,73,79,71,86,,,,,,,1.67,0.80,1.47*13
$GPGSV,4,1,15,05,55,229,39,07,27,065,37,08,09,038,25,13,66,298,24*71
$GPGSV,4,2,15,14,51,136,35,15,34,297,26,18,14,312,26,20,31,197,40*70
$GPGSV,4,3,15,21,38,185,50,22,40,155,40,23,02,329,,27,01,010,20*76
$GPGSV,4,4,15,30,57,067,41,40,18,126,40,49,32,185,49*49
$GLGSV,2,1,08,69,36,126,49,70,71,325,,71,24,315,23,73,16,206,46*6A
$GLGSV,2,2,08,79,46,044,26,80,69,175,47,86,10,298,34,87,14,339,24*6C
$GNGLL,5019.78186,N,00845.57584,E,115958.00,A,D*7C
$GNRMC,115959.00,A,5019.78183,N,00845.57586,E,0.014,,201025,,,D*62
$GNVTG,,T,,M,0.014,N,0.027,K,D*38
$GNGGA,115959.00,5019.78183,N,00845.57586,E,2,12,0.80,173.3,M,47.4,M,,0000*43
$GNGSA,A,3,14,22,07,13,21,05,20,30,15,18,,,1.67,0.80,1.47*1C
$GNGSA,A,3,69,80,73,79,71,86,,,,,,,1.67,0.80,1.47*13
$GPGSV,4,1,15,05,55,229,39,07,27,065,37,08,09,038,26,13,66,298,24*72
$GPGSV,4,2,15,14,51,136,35,15,34,297,25,18,14,312,24,20,31,197,40*71
$GPGSV,4,3,15,21,38,185,50,22,40,155,40,23,02,329,,27,01,010,20*76
$GPGSV,4,4,15,30,57,067,41,40,18,126,40,49,32,185,49*49
$GLGSV,2,1,08,69,36,126,49,70,71,325,,71,24,315,23,73,16,206,46*6A
$GLGSV,2,2,08,79,46,044,26,80,69,175,47,86,10,298,34,87,14,339,23*6B
$GNGLL,5019.78183,N,00845.57586,E,115959.00,A,D*7A
$GNRMC,120000.00,A,5019.78181,N,00845.57587,E,0.040,,201025,,,D*63
$GNVTG,,T,,M,0.040,N,0.073,K,D*38
$GNGGA,120000.00,5019.78181,N,00845.57587,E,2,12,0.80,173.3,M,47.4,M,,0000*43
$GNGSA,A,3,14,22,07,13,21,05,20,30,15,18,,,1.67,0.80,1.47*1C
$GNGSA,A,3,69,80,73,79,71,86,,,,,,,1.67,0.80,1.47*13
$GPGSV,4,1,15,05,55,229,39,07,27,065,37,08,09,038,26,13,66,298,24*72
$GPGSV,4,2,15,14,51,136,34,15,34,297,27,18,14,312,21,20,31,197,40*77
$GPGSV,4,3,15,21,38,185,50,22,40,155,41,23,02,329,,27,01,010,20*77
$GPGSV,4,4,15,30,57,067,41,40,18,126,40,49,32,185,49*49
$GLGSV,2,1,08,69,36,126,49,70,71,325,,71,24,315,24,73,16,206,46*6D
$GLGSV,2,2,08,79,46,044,26,80,69,175,47,86,10,298,35,87,14,339,23*6A
$GNGLL,5019.78181,N,00845.57587,E,120000.00,A,D*7A
$GNRMC,120001.00,A,5019.78178,N,00845.57588,E,0.013,,201025,,,D*6D
$GNVTG,,T,,M,0.013,N,0.023,K,D*3B
$GNGGA,120001.00,5019.78178,N,00845.57588,E,2,12,0.80,173.3,M,47.4,M,,0000*4B
$GNGSA,A,3,14,22,07,13,21,05,20,30,15,18,,,1.67,0.80,1.47*1C
$GNGSA,A,3,69,80,73,79,71,86,,,,,,,1.67,0.80,1.47*13
$GPGSV,4,1,15,05,55,229,39,07,27,065,37,08,09,038,28,13,66,298,25*7D
$GPGSV,4,2,15,14,51,135,34,15,34,297,27,18,14,312,19,20,31,197,40*7F
$GPGSV,4,3,15,21,38,185,50,22,40,155,40,23,02,329,,27,01,010,19*7C
$GPGSV,4,4,15,30,56,067,41,40,18,126,40,49,32,185,49*48
$GLGSV,2,1,08,69,36,126,49,70,71,325,,71,24,315,24,73,16,206,46*6D
$GLGSV,2,2,08,79,46,044,26,80,69,175,47,86,09,297,34,87,14,339,23*6C
$GNGLL,5019.78178,N,00845.57588,E,120001.00,A,D*72
$GNRMC,120002.00,A,5019.78174,N,00845.57589,E,0.026,,201025,,,D*65
$GNVTG,,T,,M,0.026,N,0.048,K,D*30
$GNGGA,120002.00,5019.78174,N,00845.57589,E,2,12,0.80,173.3,M,47.4,M,,0000*45
$GNGSA,A,3,14,22,07,13,21,05,20,30,15,18,,,1.67,0.80,1.47*1C
$GNGSA,A,3,69,80,73,79,71,86,,,,,,,1.67,0.80,1.47*13
$GPGSV,4,1,15,05,55,229,39,07,27,065,37,08,09,038,28,13,66,298,26*7E
$GPGSV,4,2,15,14,51,135,34,15,34,297,27,18,14,312,18,20,31,197,39*70
$GPGSV,4,3,15,21,38,185,50,22,40,155,40,23,02,329,,27,01,010,*74
$GPGSV,4,4,15,30,56,067,41,40,18,126,40,49,32,185,49*48
$GLGSV,2,1,08,69,36,126,49,70,71,325,,71,24,315,23,73,16,206,46*6A
$GLGSV,2,2,08,79,46,044,26,80,69,175,48,86,09,297,34,87,14,338,22*63
$GNGLL,5019.78174,N,00845.57589,E,120002.00,A,D*7C
$GNRMC,120003.00,A,5019.78172,N,00845.57588,E,0.026,,201025,,,D*63
$GNVTG,,T,,M,0.026,N,0.049,K,D*31
$GNGGA,120003.00,5019.78172,N,00845.57588,E,2,12,0.80,173.3,M,47.4,M,,0000*43
$GNGSA,A,3,14,22,07,13,21,05,20,30,15,18,,,1.67,0.80,1.47*1C
$GNGSA,A,3,69,80,73,79,71,86,,,,,,,1.67,0.80,1.47*13
$GPGSV,4,1,15,05,55,229,39,07,27,065,37,08,09,038,29,13,66,298,26*7F
$GPGSV,4,2,15,14,51,135,34,15,34,297,27,18,14,312,18,20,31,197,40*7E
$GPGSV,4,3,15,21,38,185,50,22,40,155,40,23,02,329,,27,01,010,*74
$GPGSV,4,4,15,30,56,067,41,40,18,126,40,49,32,185,49*48
$GLGSV,3,1,09,69,36,126,49,70,71,325,,71,24,315,22,73,16,206,46*6B
$GLGSV,3,2,09,79,46,044,26,80,69,175,48,86,09,297,34,87,14,338,22*63
$GLGSV,3,3,09,88,00,033,*5C
$GNGLL,5019.78172,N,00845.57588,E,120003.00,A,D*7A
$GNRMC,120004.00,A,5019.78169,N,00845.57589,E,0.032,,201025,,,D*6A
$GNVTG,,T,,M,0.032,N,0.059,K,D*35
$GNGGA,120004.00,5019.78169,N,00845.57589,E,2,12,0.80,173.3,M,47.4,M,,0000*4F
$GNGSA,A,3,14,22,07,13,21,05,20,30,15,18,,,1.67,0.80,1.47*1C
$GNGSA,A,3,69,80,73,79,71,86,,,,,,,1.67,0.80,1.47*13
$GPGSV,4,1,15,05,55,229,39,07,27,065,38,08,09,038,29,13,66,298,27*71
$GPGSV,4,2,15,14,51,135,34,15,34,297,27,18,14,312,16,20,31,197,40*70
$GPGSV,4,3,15,21,38,185,50,22,40,155,40,23,02,329,,27,01,010,*74
$GPGSV,4,4,15,30,56,067,40,40,18,126,40,49,32,185,49*49
$GLGSV,3,1,09,69,36,126,48,70,71,325,,71,24,315,21,73,16,206,46*69
$GLGSV,3,2,09,79,46,044,27,80,69,175,48,86,09,297,34,87,14,338,21*61
$GLGSV,3,3,09,88,00,033,*5C
$GNGLL,5019.78169,N,00845.57589,E,120004.00,A,D*76
$GNRMC,120005.00,A,5019.78166,N,00845.57591,E,0.048,,201025,,,D*60
$GNVTG,,T,,M,0.048,N,0.089,K,D*35
$GNGGA,120005.00,5019.78166,N,00845.57591,E,2,12,0.80,173.3,M,47.4,M,,0000*48
$GNGSA,A,3,14,22,07,13,21,05,20,30,15,18,,,1.67,0.80,1.47*1C
$GNGSA,A,3,69,80,73,79,71,86,,,,,,,1.67,0.80,1.47*13
$GPGSV,4,1,15,05,55,229,39,07,27,065,37,08,09,038,29,13,66,298,27*7E
$GPGSV,4,2,15,14,51,135,35,15,34,297,27,18,14,312,14,20,31,197,40*73
$GPGSV,4,3,15,21,38,185,50,22,40,155,40,23,02,329,,27,01,010,*74
$GPGSV,4,4,15,30,56,067,40,40,18,126,40,49,32,185,49*49
$GLGSV,3,1,09,69,36,126,48,70,71,325,,71,24,315,21,73,16,206,46*69
$GLGSV,3,2,09,79,46,044,28,80,69,175,48,86,09,297,34,87,14,338,21*6E
$GLGSV,3,3,09,88,00,033,*5C
$GNGLL,5019.78166,N,00845.57591,E,120005.00,A,D*71
$GNRMC,120006.00,A,5019.78162,N,00845.57593,E,0.053,,201025,,,D*6F
$GNVTG,,T,,M,0.053,N,0.098,K,D*3F
$GNGGA,120006.00,5019.78162,N,00845.57593,E,2,12,0.80,173.4,M,47.4,M,,0000*4A
$GNGSA,A,3,14,22,07,13,21,05,20,30,15,18,,,1.67,0.80,1.46*1D
$GNGSA,A,3,69,80,73,79,71,86,,,,,,,1.67,0.80,1.46*12
$GPGSV,4,1,15,05,55,229,39,07,27,065,37,08,09,038,29,13,66,298,28*71
$GPGSV,4,2,15,14,51,135,35,15,34,297,27,18,14,312,13,20,31,197,40*74
$GPGSV,4,3,15,21,38,185,50,22,40,155,40,23,02,329,,27,01,010,*74
$GPGSV,4,4,15,30,56,067,40,40,18,126,40,49,32,185,49*49
$GLGSV,3,1,09,69,36,126,48,70,71,325,,71,24,315,20,73,16,206,45*6B
$GLGSV,3,2,09,79,46,044,29,80,69,175,48,86,09,297,34,87,14,338,20*6E
$GLGSV,3,3,09,88,00,033,*5C
$GNGLL,5019.78162,N,00845.57593,E,120006.00,A,D*74
$GNRMC,120007.00,A,5019.78156,N,00845.57596,E,0.047,,201025,,,D*69
$GNVTG,,T,,M,0.047,N,0.088,K,D*3B
$GNGGA,120007.00,5019.78156,N,00845.57596,E,2,12,0.74,173.5,M,47.4,M,,0000*43
$GNGSA,A,3,14,22,07,13,21,05,20,30,15,18,,,1.60,0.74,1.41*16
$GNGSA,A,3,69,80,73,79,71,86,,,,,,,1.60,0.74,1.41*19
$GPGSV,4,1,15,05,55,229,39,07,27,065,37,08,09,038,30,13,66,298,28*79
$GPGSV,4,2,15,14,51,135,35,15,34,297,28,18,14,312,14,20,31,197,40*7C
$GPGSV,4,3,15,21,38,185,50,22,40,155,40,23,02,329,,27,01,010,*74
$GPGSV,4,4,15,30,56,067,39,40,18,126,40,49,32,185,49*47
$GLGSV,3,1,09,69,36,126,48,70,71,325,,71,24,315,19,73,16,206,45*61
$GLGSV,3,2,09,79,46,044,30,80,69,175,48,86,09,297,35,87,14,338,20*67
$GLGSV,3,3,09,88,00,033,*5C
$GNGLL,5019.78156,N,00845.57596,E,120007.00,A,D*77
$GNRMC,120008.00,A,5019.78151,N,00845.57598,E,0.036,,201025,,,D*69
$GNVTG,,T,,M,0.036,N,0.067,K,D*3C
$GNGGA,120008.00,5019.78151,N,00845.57598,E,2,12,0.76,173.6,M,47.4,M,,0000*44
$GNGSA,A,3,14,22,07,13,21,05,20,30,15,18,,,1.64,0.76,1.45*14
$GNGSA,A,3,69,80,73,79,71,86,,,,,,,1.64,0.76,1.45*1B
$GPGSV,4,1,15,05,55,229,39,07,27,065,37,08,09,038,29,13,66,298,27*7E
$GPGSV,4,2,15,14,51,135,35,15,34,297,27,18,14,312,14,20,31,197,40*73
$GPGSV,4,3,15,21,38,185,50,22,40,155,40,23,02,329,,27,01,010,*74
$GPGSV,4,4,15,30,56,067,39,40,18,126,40,49,32,185,49*47
$GLGSV,3,1,09,69,36,126,48,70,71,325,,71,24,315,20,73,16,206,45*6B
$GLGSV,3,2,09,79,46,044,31,80,69,175,48,86,09,297,35,87,14,338,19*6C
$GLGSV,3,3,09,88,00,033,*5C
$GNGLL,5019.78151,N,00845.57598,E,120008.00,A,D*71
$GNRMC,120009.00,A,5019.78146,N,00845.57598,E,0.025,,201025,,,D*6C
$GNVTG,,T,,M,0.025,N,0.047,K,D*3C
$GNGGA,120009.00,5019.78146,N,00845.57598,E,2,12,0.76,173.6,M,47.4,M,,0000*43
$GNGSA,A,3,14,22,07,13,21,05,20,30,15,18,,,1.64,0.76,1.45*14
$GNGSA,A,3,69,80,73,79,71,86,,,,,,,1.64,0.76,1.45*1B
$GPGSV,4,1,15,05,55,229,39,07,27,065,37,08,09,038,29,13,66,298,27*7E
$GPGSV,4,2,15,14,51,135,35,15,34,297,27,18,14,312,14,20,31,197,41*72
$GPGSV,4,3,15,21,38,185,51,22,40,155,40,23,02,329,,27,01,010,*75
$GPGSV,4,4,15,30,56,067,39,40,18,126,40,49,32,185,49*47
$GLGSV,3,1,09,69,36,126,48,70,71,325,,71,24,315,20,73,16,206,45*6B
$GLGSV,3,2,09,79,46,044,32,80,69,175,48,86,09,297,34,87,14,338,18*6F
$GLGSV,3,3,09,88,00,033,*5C
$GNGLL,5019.78146,N,00845.57598,E,120009.00,A,D*76
$GNRMC,120010.00,A,5019.78140,N,00845.57599,E,0.013,,201025,,,D*66
$GNVTG,,T,,M,0.013,N,0.023,K,D*3B
$GNGGA,120010.00,5019.78140,N,00845.57599,E,2,12,0.76,173.7,M,47.4,M,,0000*4D
$GNGSA,A,3,14,22,07,13,21,05,20,30,15,,,,1.64,0.76,1.45*1D
$GNGSA,A,3,69,80,73,79,71,86,,,,,,,1.64,0.76,1.45*1B
$GPGSV,4,1,15,05,55,229,39,07,27,065,37,08,09,038,29,13,66,298,26*7F
$GPGSV,4,2,15,14,51,135,35,15,34,297,27,18,14,312,14,20,31,197,41*72
$GPGSV,4,3,15,21,38,185,51,22,40,155,40,23,02,329,,27,01,010,*75
$GPGSV,4,4,15,30,56,067,39,40,18,126,40,49,32,185,49*47
$GLGSV,3,1,09,69,36,126,48,70,71,325,,71,24,315,20,73,16,206,45*6B
$GLGSV,3,2,09,79,46,044,33,80,69,175,48,86,09,297,34,87,14,338,17*61
$GLGSV,3,3,09,88,00,033,*5C
$GNGLL,5019.78140,N,00845.57599,E,120010.00,A,D*79
$GNRMC,120011.00,A,5019.78135,N,00845.57597,E,0.056,,201025,,,D*6A
$GNVTG,,T,,M,0.056,N,0.103,K,D*39
$GNGGA,120011.00,5019.78135,N,00845.57597,E,2,12,0.76,173.7,M,47.4,M,,0000*40
$GNGSA,A,3,14,22,07,13,21,05,20,30,15,,,,1.64,0.76,1.45*1D
$GNGSA,A,3,69,80,73,79,71,86,,,,,,,1.64,0.76,1.45*1B
$GPGSV,4,1,15,05,55,229,40,07,27,065,37,08,09,038,29,13,66,298,27*70
$GPGSV,4,2,15,14,51,135,35,15,34,297,26,18,14,312,14,20,31,197,41*73
$GPGSV,4,3,15,21,38,185,51,22,40,155,40,23,02,329,,27,01,010,*75
$GPGSV,4,4,15,30,56,067,39,40,18,126,40,49,32,185,49*47
$GLGSV,3,1,09,69,36,126,48,70,71,325,,71,24,315,19,73,16,206,45*61
$GLGSV,3,2,09,79,46,044,33,80,69,175,48,86,09,297,34,87,14,338,17*61
$GLGSV,3,3,09,88,00,033,*5C
$GNGLL,5019.78135,N,00845.57597,E,120011.00,A,D*74
$GNRMC,120012.00,A,5019.78130,N,00845.57597,E,0.006,,201025,,,D*69
$GNVTG,,T,,M,0.006,N,0.010,K,D*3F
$GNGGA,120012.00,5019.78130,N,00845.57597,E,2,12,0.76,173.8,M,47.4,M,,0000*49
$GNGSA,A,3,14,22,07,13,21,05,20,30,15,,,,1.64,0.76,1.45*1D
$GNGSA,A,3,69,80,73,79,71,86,,,,,,,1.64,0.76,1.45*1B
$GPGSV,4,1,15,05,55,229,40,07,27,065,37,08,09,038,29,13,66,298,27*70
$GPGSV,4,2,15,14,51,135,35,15,34,297,25,18,14,312,14,20,31,197,41*70
$GPGSV,4,3,15,21,38,185,51,22,40,155,40,23,02,329,,27,01,010,*75
$GPGSV,4,4,15,30,56,067,39,40,18,126,40,49,32,185,49*47
$GLGSV,3,1,09,69,36,126,48,70,71,325,,71,24,315,18,73,16,206,45*60
$GLGSV,3,2,09,79,46,044,34,80,69,175,48,86,09,297,34,87,14,338,19*68
$GLGSV,3,3,09,88,00,033,*5C
$GNGLL,5019.78130,N,00845.57597,E,120012.00,A,D*72
$GNRMC,120013.00,A,5019.78125,N,00845.57597,E,0.012,,201025,,,D*69
$GNVTG,,T,,M,0.012,N,0.023,K,D*3A
$GNGGA,120013.00,5019.78125,N,00845.57597,E,2,12,0.76,173.9,M,47.4,M,,0000*4D
$GNGSA,A,3,14,22,07,13,21,05,20,30,15,,,,1.64,0.76,1.45*1D
$GNGSA,A,3,69,80,73,79,71,86,,,,,,,1.64,0.76,1.45*1B
$GPGSV,4,1,15,05,55,229,40,07,27,065,37,08,09,038,29,13,66,298,26*71
$GPGSV,4,2,15,14,51,135,35,15,34,297,25,18,14,312,13,20,31,197,41*77
$GPGSV,4,3,15,21,38,185,51,22,40,155,40,23,02,329,,27,01,010,*75
$GPGSV,4,4,15,30,56,067,38,40,18,126,40,49,32,185,49*46
$GLGSV,3,1,09,69,36,126,47,70,71,325,,71,24,315,17,73,16,206,45*60
$GLGSV,3,2,09,79,46,044,34,80,69,175,48,86,09,297,34,87,14,338,20*62
$GLGSV,3,3,09,88,00,033,*5C
$GNGLL,5019.78125,N,00845.57597,E,120013.00,A,D*77
$GNRMC,120014.00,A,5019.78121,N,00845.57598,E,0.004,,201025,,,D*62
$GNVTG,,T,,M,0.004,N,0.008,K,D*34
$GNGGA,120014.00,5019.78121,N,00845.57598,E,2,12,0.73,173.9,M,47.4,M,,0000*44
$GNGSA,A,3,14,22,07,13,21,05,20,30,15,,,,1.47,0.73,1.27*1D
$GNGSA,A,3,69,80,73,79,71,86,,,,,,,1.47,0.73,1.27*1B
$GPGSV,4,1,15,05,55,229,40,07,27,065,37,08,09,038,29,13,66,298,26*71
$GPGSV,4,2,15,14,51,135,35,15,34,297,25,18,14,312,14,20,31,197,41*70
$GPGSV,4,3,15,21,38,185,51,22,40,155,40,23,02,329,,27,01,010,*75
$GPGSV,4,4,15,30,56,067,38,40,18,126,40,49,32,185,49*46
$GLGSV,3,1,09,69,36,126,47,70,71,325,,71,24,315,17,73,16,206,45*60
$GLGSV,3,2,09,79,46,044,33,80,69,175,48,86,09,297,34,87,14,338,21*64
$GLGSV,3,3,09,88,00,033,*5C
$GNGLL,5019.78121,N,00845.57598,E,120014.00,A,D*7B
$GNRMC,120015.00,A,5019.78117,N,00845.57600,E,0.041,,201025,,,D*65
$GNVTG,,T,,M,0.041,N,0.077,K,D*3D
$GNGGA,120015.00,5019.78117,N,00845.57600,E,2,12,0.73,174.0,M,47.4,M,,0000*4C
$GNGSA,A,3,14,22,07,13,21,05,20,30,15,,,,1.47,0.73,1.27*1D
$GNGSA,A,3,69,80,73,79,71,86,,,,,,,1.47,0.73,1.27*1B
$GPGSV,4,1,15,05,55,229,40,07,27,065,37,08,09,038,28,13,66,298,26*70
$GPGSV,4,2,15,14,51,135,36,15,34,297,25,18,14,312,14,20,31,197,41*73
$GPGSV,4,3,15,21,38,185,51,22,40,155,40,23,02,329,,27,01,010,*75
$GPGSV,4,4,15,30,56,067,37,40,18,126,40,49,32,185,49*49
$GLGSV,3,1,09,69,36,126,47,70,71,325,,71,24,315,17,73,16,206,45*60
$GLGSV,3,2,09,79,46,044,33,80,69,175,48,86,09,297,33,87,14,338,21*63
$GLGSV,3,3,09,88,00,033,*5C
$GNGLL,5019.78117,N,00845.57600,E,120015.00,A,D*7D
$GNRMC,120016.00,A,5019.78115,N,00845.57600,E,0.003,,201025,,,D*62
$GNVTG,,T,,M,0.003,N,0.005,K,D*3E
$GNGGA,120016.00,5019.78115,N,00845.57600,E,2,12,0.73,174.0,M,47.4,M,,0000*4D
$GNGSA,A,3,14,22,07,13,21,05,20,30,15,18,,,1.47,0.73,1.27*14
$GNGSA,A,3,69,80,73,79,71,86,,,,,,,1.47,0.73,1.27*1B
$GPGSV,4,1,15,05,55,229,40,07,27,065,37,08,09,038,27,13,66,298,25*7C
$GPGSV,4,2,15,14,51,135,36,15,34,297,24,18,14,312,18,20,31,197,41*7E
$GPGSV,4,3,15,21,38,185,51,22,40,155,40,23,02,329,,27,01,010,*75
$GPGSV,4,4,15,30,56,067,37,40,18,126,40,49,32,185,49*49
$GLGSV,3,1,09,69,36,126,47,70,71,325,,71,24,315,18,73,16,206,45*6F
$GLGSV,3,2,09,79,46,044,32,80,69,175,48,86,09,297,33,87,14,338,21*62
$GLGSV,3,3,09,88,00,033,*5C
$GNGLL,5019.78115,N,00845.57600,E,120016.00,A,D*7C
$GNRMC,120017.00,A,5019.78115,N,00845.57602,E,0.034,,201025,,,D*65
$GNVTG,,T,,M,0.034,N,0.063,K,D*3A
$GNGGA,120017.00,5019.78115,N,00845.57602,E,2,12,0.73,174.0,M,47.4,M,,0000*4E
$GNGSA,A,3,14,22,07,13,21,05,20,30,15,18,,,1.47,0.73,1.27*14
$GNGSA,A,3,69,80,73,79,71,86,,,,,,,1.47,0.73,1.27*1B
$GPGSV,4,1,15,05,55,229,41,07,27,065,37,08,09,038,27,13,66,298,26*7E
$GPGSV,4,2,15,14,51,135,36,15,34,297,23,18,14,312,18,20,31,197,41*79
$GPGSV,4,3,15,21,38,185,51,22,40,155,40,23,02,329,,27,01,010,*75
$GPGSV,4,4,15,30,56,067,36,40,18,126,40,49,32,185,49*48
$GLGSV,3,1,09,69,36,126,47,70,71,325,,71,24,315,17,73,16,206,44*61
$GLGSV,3,2,09,79,46,044,30,80,69,175,48,86,09,297,33,87,14,338,21*60
$GLGSV,3,3,09,88,00,033,*5C
$GNGLL,5019.78115,N,00845.57602,E,120017.00,A,D*7F
$GNRMC,120018.00,A,5019.78119,N,00845.57602,E,0.090,,201025,,,D*68
$GNVTG,,T,,M,0.090,N,0.167,K,D*31
$GNGGA,120018.00,5019.78119,N,00845.57602,E,2,12,0.77,173.9,M,47.4,M,,0000*47
$GNGSA,A,3,14,22,07,13,21,05,20,30,15,18,,,1.49,0.77,1.28*11
$GNGSA,A,3,69,80,73,79,71,86,,,,,,,1.49,0.77,1.28*1E
$GPGSV,4,1,15,05,55,229,41,07,27,065,38,08,09,038,27,13,66,298,26*71
$GPGSV,4,2,15,14,51,135,36,15,34,297,23,18,14,312,14,20,31,197,41*75
$GPGSV,4,3,15,21,38,185,51,22,40,155,40,23,02,329,,27,01,010,*75
$GPGSV,4,4,15,30,56,067,35,40,18,126,40,49,32,185,49*4B
$GLGSV,3,1,09,69,36,126,46,70,71,325,,71,24,315,13,73,16,206,44*64
$GLGSV,3,2,09,79,46,044,29,80,69,175,48,86,09,297,33,87,14,338,21*68
$GLGSV,3,3,09,88,00,033,*5C
$GNGLL,5019.78119,N,00845.57602,E,120018.00,A,D*7C
$GNRMC,120019.00,A,5019.78123,N,00845.57602,E,0.117,,201025,,,D*6E
$GNVTG,,T,,M,0.117,N,0.218,K,D*34
$GNGGA,120019.00,5019.78123,N,00845.57602,E,2,12,0.73,173.9,M,47.4,M,,0000*4B
$GNGSA,A,3,14,22,07,13,21,05,20,30,15,18,,,1.47,0.73,1.27*14
$GNGSA,A,3,69,80,73,79,71,86,,,,,,,1.47,0.73,1.27*1B
$GPGSV,4,1,15,05,55,229,41,07,27,065,38,08,09,038,26,13,66,298,28*7E
$GPGSV,4,2,15,14,51,135,37,15,34,297,24,18,14,312,13,20,31,197,41*74
$GPGSV,4,3,15,21,38,185,51,22,40,155,40,23,02,329,,27,01,010,*75
$GPGSV,4,4,15,30,56,067,35,40,18,126,40,49,32,185,49*4B
$GLGSV,3,1,09,69,36,126,46,70,71,325,,71,24,315,14,73,16,206,44*63
$GLGSV,3,2,09,79,46,044,28,80,69,175,48,86,09,297,32,87,14,338,21*68
$GLGSV,3,3,09,88,00,033,*5C
$GNGLL,5019.78123,N,00845.57602,E,120019.00,A,D*74
$GNRMC,120020.00,A,5019.78125,N,00845.57604,E,0.022,,201025,,,D*63
$GNVTG,,T,,M,0.022,N,0.041,K,D*3D
$GNGGA,120020.00,5019.78125,N,00845.57604,E,2,12,0.73,173.8,M,47.4,M,,0000*40
$GNGSA,A,3,14,22,07,13,21,05,20,30,15,18,,,1.47,0.73,1.27*14
$GNGSA,A,3,69,80,73,79,71,86,,,,,,,1.47,0.73,1.27*1B
$GPGSV,4,1,15,05,55,229,41,07,27,065,37,08,09,038,25,13,66,298,27*7D
$GPGSV,4,2,15,14,51,135,37,15,34,297,23,18,14,312,17,20,31,197,41*77
$GPGSV,4,3,15,21,38,185,51,22,40,155,41,23,02,329,,27,01,010,*74
$GPGSV,4,4,15,30,56,067,34,40,18,126,40,49,32,185,49*4A
$GLGSV,3,1,09,69,36,126,46,70,71,325,,71,24,315,15,73,16,206,44*62
$GLGSV,3,2,09,79,46,044,27,80,69,175,48,86,09,297,32,87,14,338,20*66
$GLGSV,3,3,09,88,00,033,*5C
$GNGLL,5019.78125,N,00845.57604,E,120020.00,A,D*7E
$GNRMC,120021.00,A,5019.78128,N,00845.57606,E,0.051,,201025,,,D*69
$GNVTG,,T,,M,0.051,N,0.094,K,D*31
$GNGGA,120021.00,5019.78128,N,00845.57606,E,2,12,0.73,173.7,M,47.4,M,,0000*41
$GNGSA,A,3,14,22,07,13,21,05,20,30,15,18,,,1.47,0.73,1.27*14
$GNGSA,A,3,69,80,73,79,71,86,,,,,,,1.47,0.73,1.27*1B
$GPGSV,4,1,15,05,55,229,41,07,27,065,37,08,09,038,25,13,66,298,28*72
$GPGSV,4,2,15,14,51,135,38,15,34,297,24,18,14,312,13,20,31,197,41*7B
$GPGSV,4,3,15,21,38,185,51,22,40,155,41,23,02,329,,27,01,010,*74
$GPGSV,4,4,15,30,56,067,33,40,18,126,40,49,32,185,49*4D
$GLGSV,3,1,09,69,36,126,46,70,71,325,,71,24,315,20,73,16,206,44*64
$GLGSV,3,2,09,79,46,044,27,80,69,175,48,86,09,297,33,87,14,338,20*67
$GLGSV,3,3,09,88,00,033,*5C
$GNGLL,5019.78128,N,00845.57606,E,120021.00,A,D*70
$GNRMC,120022.00,A,5019.78130,N,00845.57610,E,0.093,,201025,,,D*6A
$GNVTG,,T,,M,0.093,N,0.172,K,D*36
$GNGGA,120022.00,5019.78130,N,00845.57610,E,2,12,0.73,173.6,M,47.4,M,,0000*4D
$GNGSA,A,3,14,22,07,13,21,05,20,30,15,18,,,1.47,0.73,1.27*14
$GNGSA,A,3,69,80,73,79,71,86,,,,,,,1.47,0.73,1.27*1B
$GPGSV,4,1,15,05,55,229,42,07,27,065,37,08,09,038,25,13,66,298,28*71
$GPGSV,4,2,15,14,51,135,38,15,34,297,24,18,14,312,17,20,31,197,41*7F
$GPGSV,4,3,15,21,38,185,51,22,40,155,41,23,02,329,,27,01,010,*74
$GPGSV,4,4,15,30,56,067,32,40,18,126,40,49,32,185,49*4C
$GLGSV,3,1,09,69,36,126,45,70,71,325,,71,24,315,19,73,16,206,44*6D
$GLGSV,3,2,09,79,46,044,28,80,69,175,48,86,09,297,33,87,14,338,20*68
$GLGSV,3,3,09,88,00,033,*5C
$GNGLL,5019.78130,N,00845.57610,E,120022.00,A,D*7D
$GNRMC,120023.00,A,5019.78132,N,00845.57614,E,0.071,,201025,,,D*61
$GNVTG,,T,,M,0.071,N,0.131,K,D*3D
$GNGGA,120023.00,5019.78132,N,00845.57614,E,2,12,0.73,173.5,M,47.4,M,,0000*49
$GNGSA,A,3,14,22,07,13,21,05,20,30,15,18,,,1.47,0.73,1.27*14
$GNGSA,A,3,69,80,73,79,71,86,,,,,,,1.47,0.73,1.27*1B
$GPGSV,4,1,15,05,55,229,42,07,27,065,37,08,09,038,24,13,66,298,28*70
$GPGSV,4,2,15,14,51,135,39,15,34,297,23,18,14,312,20,20,31,196,41*7C
$GPGSV,4,3,15,21,38,185,51,22,40,155,42,23,02,329,,27,01,010,*77
$GPGSV,4,4,15,30,56,067,32,40,18,126,40,49,32,185,49*4C
$GLGSV,3,1,09,69,36,126,45,70,71,325,,71,24,315,20,73,16,206,44*67
$GLGSV,3,2,09,79,46,044,28,80,69,175,48,86,09,297,33,87,14,338,20*68
$GLGSV,3,3,09,88,00,033,*5C
$GNGLL,5019.78132,N,00845.57614,E,120023.00,A,D*7A
$GNRMC,120024.00,A,5019.78136,N,00845.57618,E,0.051,,201025,,,D*6C
$GNVTG,,T,,M,0.051,N,0.095,K,D*30
$GNGGA,120024.00,5019.78136,N,00845.57618,E,2,12,0.73,173.5,M,47.4,M,,0000*46
$GNGSA,A,3,14,22,07,13,21,05,20,30,15,18,,,1.47,0.73,1.27*14
$GNGSA,A,3,69,80,73,79,71,86,,,,,,,1.47,0.73,1.27*1B
$GPGSV,4,1,15,05,55,229,42,07,27,065,37,08,09,038,24,13,66,298,28*70
$GPGSV,4,2,15,14,51,135,39,15,34,297,23,18,14,312,20,20,31,196,41*7C
$GPGSV,4,3,15,21,37,185,51,22,40,155,42,23,02,329,,27,01,010,*78
$GPGSV,4,4,15,30,56,067,31,40,18,126,40,49,32,185,49*4F
$GLGSV,3,1,09,69,36,126,45,70,71,325,,71,24,315,20,73,16,206,44*67
$GLGSV,3,2,09,79,46,044,29,80,69,175,48,86,09,297,34,87,14,338,21*6F
$GLGSV,3,3,09,88,00,033,*5C
$GNGLL,5019.78136,N,00845.57618,E,120024.00,A,D*75
$GNRMC,120025.00,A,5019.78137,N,00845.57623,E,0.074,,201025,,,D*63
$GNVTG,,T,,M,0.074,N,0.138,K,D*31
$GNGGA,120025.00,5019.78137,N,00845.57623,E,2,12,0.75,173.4,M,47.4,M,,0000*49
$GNGSA,A,3,14,22,07,13,21,05,20,30,15,,,,1.50,0.75,1.30*1B
$GNGSA,A,3,69,80,73,79,71,86,,,,,,,1.50,0.75,1.30*1D
$GPGSV,4,1,15,05,55,229,41,07,27,065,37,08,09,038,21,13,66,298,27*79
$GPGSV,4,2,15,14,51,135,39,15,34,297,24,18,14,312,12,20,31,196,42*79
$GPGSV,4,3,15,21,37,185,51,22,40,154,42,23,02,329,,27,01,010,*79
$GPGSV,4,4,15,30,56,067,29,40,18,126,41,49,32,185,48*46
$GLGSV,3,1,09,69,36,126,43,70,71,325,,71,24,315,20,73,16,206,43*66
$GLGSV,3,2,09,79,46,044,30,80,69,175,48,86,09,297,34,87,14,338,22*64
$GLGSV,3,3,09,88,00,033,*5C
$GNGLL,5019.78137,N,00845.57623,E,120025.00,A,D*7D
$GNRMC,120026.00,A,5019.78139,N,00845.57626,E,0.123,,201025,,,D*68
$GNVTG,,T,,M,0.123,N,0.228,K,D*30
$GNGGA,120026.00,5019.78139,N,00845.57626,E,2,12,0.71,173.4,M,47.4,M,,0000*45
$GNGSA,A,3,14,22,07,13,21,05,20,30,15,18,,,1.41,0.71,1.22*15
$GNGSA,A,3,69,80,73,79,71,86,,,,,,,1.41,0.71,1.22*1A
$GPGSV,4,1,15,05,55,229,41,07,27,065,36,08,09,038,21,13,66,298,28*77
$GPGSV,4,2,15,14,51,135,44,15,34,297,25,18,14,312,15,20,31,196,44*73
$GPGSV,4,3,15,21,37,185,51,22,40,154,45,23,03,329,,27,01,010,*7F
$GPGSV,4,4,15,30,56,067,30,40,18,126,41,49,32,185,48*4E
$GLGSV,3,1,09,69,36,126,44,70,71,325,,71,24,315,20,73,16,206,44*66
$GLGSV,3,2,09,79,46,044,30,80,69,175,48,86,09,297,34,87,14,338,23*65
$GLGSV,3,3,09,88,00,033,*5C
$GNGLL,5019.78139,N,00845.57626,E,120026.00,A,D*75
$GNRMC,120027.00,A,5019.78130,N,00845.57626,E,0.780,214.22,201025,,,D*76
$GNVTG,214.22,T,,M,0.780,N,1.444,K,D*2B
$GNGGA,120027.00,5019.78130,N,00845.57626,E,2,12,0.71,173.3,M,47.4,M,,0000*4A
$GNGSA,A,3,14,22,07,13,21,05,20,30,15,18,,,1.41,0.71,1.22*15
$GNGSA,A,3,69,80,73,79,71,86,,,,,,,1.41,0.71,1.22*1A
$GPGSV,4,1,15,05,55,229,29,07,27,065,32,08,09,038,20,13,66,298,27*73
$GPGSV,4,2,15,14,51,135,42,15,34,297,24,18,14,312,17,20,31,196,37*72
$GPGSV,4,3,15,21,37,185,40,22,40,154,47,23,03,329,,27,01,010,*7D
$GPGSV,4,4,15,30,56,067,35,40,18,126,31,49,32,185,40*44
$GLGSV,3,1,09,69,36,126,40,70,71,325,,71,24,315,19,73,16,206,34*6F
$GLGSV,3,2,09,79,46,044,28,80,69,175,38,86,09,297,25,87,14,338,21*69
$GLGSV,3,3,09,88,00,033,*5C
$GNGLL,5019.78130,N,00845.57626,E,120027.00,A,D*7D
$GNRMC,120028.00,A,5019.78118,N,00845.57662,E,1.155,,201025,,,D*65
$GNVTG,,T,,M,1.155,N,2.138,K,D*30
$GNGGA,120028.00,5019.78118,N,00845.57662,E,2,12,0.81,173.2,M,47.4,M,,0000*41
$GNGSA,A,3,14,22,07,13,21,05,20,30,15,18,,,1.64,0.81,1.43*1A
$GNGSA,A,3,69,80,73,86,,,,,,,,,1.64,0.81,1.43*1D
$GPGSV,4,1,15,05,55,229,27,07,27,065,22,08,09,038,18,13,66,298,24*74
$GPGSV,4,2,15,14,51,135,38,15,34,297,21,18,14,312,17,20,31,196,28*74
$GPGSV,4,3,15,21,37,185,39,22,40,154,34,23,03,329,,27,01,010,*77
$GPGSV,4,4,15,30,56,067,29,40,18,126,,49,32,185,*4F
$GLGSV,3,1,09,69,36,126,31,70,71,325,,71,24,315,,73,16,206,29*6D
$GLGSV,3,2,09,79,46,044,,80,69,175,33,86,09,297,22,87,14,338,19*64
$GLGSV,3,3,09,88,00,033,*5C
$GNGLL,5019.78118,N,00845.57662,E,120028.00,A,D*78
$GNRMC,120029.00,A,5019.78117,N,00845.57673,E,0.357,,201025,,,D*6A
$GNVTG,,T,,M,0.357,N,0.661,K,D*38
$GNGGA,120029.00,5019.78117,N,00845.57673,E,2,12,0.81,173.3,M,47.4,M,,0000*4E
$GNGSA,A,3,14,22,07,13,21,05,20,30,15,18,,,1.64,0.81,1.43*1A
$GNGSA,A,3,69,80,73,86,,,,,,,,,1.64,0.81,1.43*1D
$GPGSV,4,1,15,05,55,229,23,07,27,065,18,08,09,038,,13,66,298,16*71
$GPGSV,4,2,15,14,51,135,37,15,34,297,15,18,14,312,13,20,31,196,32*73
$GPGSV,4,3,15,21,37,185,34,22,40,154,31,23,03,329,,27,01,010,*7F
$GPGSV,4,4,15,30,56,067,27,40,18,126,,49,32,185,*41
$GLGSV,3,1,09,69,36,126,37,70,71,325,,71,24,315,,73,16,206,26*64
$GLGSV,3,2,09,79,46,044,,80,69,175,36,86,09,297,14,87,14,338,14*69
$GLGSV,3,3,09,88,00,033,*5C
$GNGLL,5019.78117,N,00845.57673,E,120029.00,A,D*76
$GNRMC,120030.00,A,5019.78113,N,00845.57671,E,0.740,,201025,,,D*66
$GNVTG,,T,,M,0.740,N,1.371,K,D*3F
$GNGGA,120030.00,5019.78113,N,00845.57671,E,2,12,0.81,173.4,M,47.4,M,,0000*47
$GNGSA,A,3,14,22,07,13,21,05,20,30,15,18,,,1.64,0.81,1.43*1A
$GNGSA,A,3,69,80,73,86,,,,,,,,,1.64,0.81,1.43*1D
$GPGSV,4,1,15,05,55,229,19,07,27,065,16,08,09,038,,13,66,298,14*74
$GPGSV,4,2,15,14,51,135,39,15,34,297,10,18,14,312,13,20,31,196,33*79
$GPGSV,4,3,15,21,37,185,37,22,40,154,35,23,03,329,,27,01,009,*70
$GPGSV,4,4,15,30,56,067,29,40,18,126,,49,32,185,*4F
$GLGSV,3,1,09,69,36,126,34,70,71,325,,71,24,315,,73,16,206,31*61
$GLGSV,3,2,09,79,46,044,,80,69,175,36,86,09,297,14,87,14,338,13*6E
$GLGSV,3,3,09,88,00,033,*5C
$GNGLL,5019.78113,N,00845.57671,E,120030.00,A,D*78
$GNRMC,120031.00,A,5019.78087,N,00845.57692,E,1.408,175.39,201025,,,D*7F
$GNVTG,175.39,T,,M,1.408,N,2.608,K,D*2E
$GNGGA,120031.00,5019.78087,N,00845.57692,E,2,12,0.87,173.8,M,47.4,M,,0000*4D
$GNGSA,A,3,14,22,07,13,21,05,20,30,15,18,,,1.73,0.87,1.49*10
$GNGSA,A,3,69,80,73,86,,,,,,,,,1.73,0.87,1.49*17
$GPGSV,4,1,15,05,55,229,20,07,27,065,17,08,09,038,,13,66,298,13*78
$GPGSV,4,2,15,14,51,135,38,15,34,297,10,18,14,312,14,20,31,196,33*7F
$GPGSV,4,3,15,21,37,185,33,22,40,154,40,23,03,329,,27,01,009,*76
$GPGSV,4,4,15,30,56,067,30,40,18,126,,49,32,185,*47
$GLGSV,3,1,09,69,36,126,30,70,71,325,,71,24,315,,73,16,206,29*6C
$GLGSV,3,2,09,79,46,044,,80,69,175,36,86,09,297,15,87,14,338,12*6E
$GLGSV,3,3,09,88,00,033,*5C
$GNGLL,5019.78087,N,00845.57692,E,120031.00,A,D*78
$GNRMC,120032.00,A,5019.78075,N,00845.57688,E,0.587,,201025,,,D*6A
$GNVTG,,T,,M,0.587,N,1.086,K,D*3D
$GNGGA,120032.00,5019.78075,N,00845.57688,E,2,12,0.81,174.0,M,47.4,M,,0000*41
$GNGSA,A,3,14,22,07,13,21,05,20,30,15,,,,1.52,0.81,1.29*1A
$GNGSA,A,3,69,80,73,86,,,,,,,,,1.52,0.81,1.29*14
$GPGSV,4,1,15,05,55,229,21,07,27,065,16,08,09,038,,13,66,298,14*7F
$GPGSV,4,2,15,14,51,135,28,15,34,297,10,18,14,312,,20,31,196,16*7C
$GPGSV,4,3,15,21,37,185,24,22,40,154,30,23,03,329,,27,01,009,*77
$GPGSV,4,4,15,30,56,067,22,40,18,126,,49,32,185,*44
$GLGSV,3,1,09,69,36,126,29,70,71,325,,71,24,315,,73,16,206,24*69
$GLGSV,3,2,09,79,46,044,,80,69,175,24,86,09,297,16,87,14,338,*6D
$GLGSV,3,3,09,88,00,033,*5C
$GNGLL,5019.78075,N,00845.57688,E,120032.00,A,D*7D
$GNRMC,120033.00,A,5019.78057,N,00845.57677,E,0.671,,201025,,,D*61
$GNVTG,,T,,M,0.671,N,1.243,K,D*3C
$GNGGA,120033.00,5019.78057,N,00845.57677,E,2,12,1.06,174.4,M,47.4,M,,0000*4A
$GNGSA,A,3,14,22,13,21,05,20,30,15,,,,,1.98,1.06,1.67*1F
$GNGSA,A,3,69,80,73,86,,,,,,,,,1.98,1.06,1.67*16
$GPGSV,4,1,15,05,55,229,18,07,27,065,,08,09,038,,13,66,298,11*77
$GPGSV,4,2,15,14,51,135,25,15,34,297,10,18,14,312,,20,31,196,12*75
$GPGSV,4,3,15,21,37,185,29,22,40,154,31,23,03,329,,27,01,009,*7B
$GPGSV,4,4,15,30,56,067,21,40,18,126,,49,32,185,*47
$GLGSV,3,1,09,69,36,126,28,70,71,325,,71,24,315,,73,16,206,23*6F
$GLGSV,3,2,09,79,46,044,,80,69,175,22,86,09,297,16,87,14,338,*6B
$GLGSV,3,3,09,88,00,033,*5C
$GNGLL,5019.78057,N,00845.57677,E,120033.00,A,D*7C
$GNRMC,120034.00,A,5019.78044,N,00845.57642,E,0.930,,201025,,,D*68
$GNVTG,,T,,M,0.930,N,1.723,K,D*35
$GNGGA,120034.00,5019.78044,N,00845.57642,E,2,11,1.06,174.8,M,47.4,M,,0000*46
$GNGSA,A,3,14,22,21,05,20,30,15,,,,,,1.98,1.06,1.67*1D
$GNGSA,A,3,69,80,73,86,,,,,,,,,1.98,1.06,1.67*16
$GPGSV,4,1,15,05,55,229,14,07,27,065,,08,09,038,,13,66,298,*7B
$GPGSV,4,2,15,14,51,135,26,15,34,297,10,18,14,312,,20,31,196,14*70
$GPGSV,4,3,15,21,37,185,27,22,40,154,32,23,03,329,,27,01,009,*76
$GPGSV,4,4,15,30,56,067,20,40,18,126,,49,32,185,*46
$GLGSV,3,1,09,69,36,126,26,70,71,325,,71,24,315,,73,16,206,23*61
$GLGSV,3,2,09,79,46,044,,80,69,175,22,86,09,297,16,87,14,338,*6B
$GLGSV,3,3,09,88,00,033,*5C
$GNGLL,5019.78044,N,00845.57642,E,120034.00,A,D*7F
$GNRMC,120035.00,A,5019.78022,N,00845.57601,E,1.204,,201025,,,D*63
$GNVTG,,T,,M,1.204,N,2.231,K,D*3D
$GNGGA,120035.00,5019.78022,N,00845.57601,E,2,11,1.06,175.0,M,47.4,M,,0000*49
$GNGSA,A,3,14,22,21,05,20,30,15,,,,,,1.98,1.06,1.67*1D
$GNGSA,A,3,69,80,73,86,,,,,,,,,1.98,1.06,1.67*16
$GPGSV,4,1,15,05,55,229,13,07,27,065,,08,09,038,,13,66,298,*7C
$GPGSV,4,2,15,14,51,135,26,15,34,297,10,18,14,312,11,20,31,196,13*77
$GPGSV,4,3,15,21,37,185,25,22,40,154,31,23,03,329,,27,01,009,*77
$GPGSV,4,4,15,30,56,067,18,40,18,126,,49,32,185,*4D
$GLGSV,3,1,09,69,36,126,27,70,71,325,,71,24,315,,73,16,206,23*60
$GLGSV,3,2,09,79,46,044,,80,69,175,19,86,09,297,15,87,14,338,*60
$GLGSV,3,3,09,88,00,033,*5C
$GNGLL,5019.78022,N,00845.57601,E,120035.00,A,D*79
$GNRMC,120036.00,A,5019.77993,N,00845.57609,E,0.790,,201025,,,D*6D
$GNVTG,,T,,M,0.790,N,1.463,K,D*36
$GNGGA,120036.00,5019.77993,N,00845.57609,E,2,09,1.26,175.2,M,47.4,M,,0000*47
$GNGSA,A,3,14,22,21,30,15,,,,,,,,2.37,1.26,2.01*1D
$GNGSA,A,3,69,80,73,86,,,,,,,,,2.37,1.26,2.01*11
$GPGSV,4,1,15,05,55,229,09,07,27,065,,08,09,038,,13,66,298,*77
$GPGSV,4,2,15,14,51,135,25,15,34,297,10,18,14,312,10,20,31,196,11*77
$GPGSV,4,3,15,21,37,185,24,22,40,154,32,23,03,329,,27,01,009,*75
$GPGSV,4,4,15,30,56,067,16,40,18,126,,49,32,185,*43
$GLGSV,3,1,09,69,36,126,26,70,71,325,,71,24,315,,73,16,206,23*61
$GLGSV,3,2,09,79,46,044,,80,69,175,19,86,09,297,16,87,14,338,*63
$GLGSV,3,3,09,88,00,033,*5C
$GNGLL,5019.77993,N,00845.57609,E,120036.00,A,D*7E
$GNRMC,120037.00,A,5019.77988,N,00845.57596,E,0.828,,201025,,,D*6F
$GNVTG,,T,,M,0.828,N,1.534,K,D*39
$GNGGA,120037.00,5019.77988,N,00845.57596,E,2,09,1.26,175.7,M,47.4,M,,0000*4C
$GNGSA,A,3,14,22,21,30,15,,,,,,,,2.37,1.26,2.01*1D
$GNGSA,A,3,69,80,73,86,,,,,,,,,2.37,1.26,2.01*11
$GPGSV,4,1,15,05,55,229,09,07,27,065,,08,09,038,,13,66,298,*77
$GPGSV,4,2,15,14,51,135,25,15,34,297,10,18,14,312,09,20,31,196,10*7E
$GPGSV,4,3,15,21,37,185,23,22,40,154,32,23,03,329,,27,01,009,*72
$GPGSV,4,4,15,30,56,067,15,40,18,126,,49,32,185,*40
$GLGSV,3,1,09,69,36,126,27,70,71,325,,71,24,315,,73,16,206,23*60
$GLGSV,3,2,09,79,46,044,,80,69,175,19,86,09,297,16,87,14,338,*63
$GLGSV,3,3,09,88,00,033,*5C
$GNGLL,5019.77988,N,00845.57596,E,120037.00,A,D*70
$GNRMC,120038.00,A,5019.77987,N,00845.57617,E,0.582,,201025,,,D*68
$GNVTG,,T,,M,0.582,N,1.078,K,D*39
$GNGGA,120038.00,5019.77987,N,00845.57617,E,2,11,1.06,175.7,M,47.4,M,,0000*4D
$GNGSA,A,3,14,22,21,05,20,30,15,,,,,,1.98,1.06,1.67*1D
$GNGSA,A,3,69,80,73,86,,,,,,,,,1.98,1.06,1.67*16
$GPGSV,4,1,15,05,55,229,11,07,27,065,,08,09,038,,13,66,298,*7E
$GPGSV,4,2,15,14,51,135,24,15,34,297,10,18,14,312,09,20,31,196,11*7E
$GPGSV,4,3,15,21,37,185,23,22,40,154,32,23,03,329,,27,01,009,*72
$GPGSV,4,4,15,30,56,067,15,40,18,126,,49,32,185,*40
$GLGSV,3,1,09,69,36,126,27,70,71,325,,71,24,315,,73,16,206,23*60
$GLGSV,3,2,09,79,46,044,,80,69,175,20,86,09,297,15,87,14,338,*6A
$GLGSV,3,3,09,88,00,033,*5C
$GNGLL,5019.77987,N,00845.57617,E,120038.00,A,D*7A
$GNRMC,120039.00,A,5019.77968,N,00845.57639,E,0.882,,201025,,,D*69
$GNVTG,,T,,M,0.882,N,1.633,K,D*3D
$GNGGA,120039.00,5019.77968,N,00845.57639,E,2,10,1.19,175.8,M,47.4,M,,0000*41
$GNGSA,A,3,14,22,21,20,30,15,,,,,,,2.33,1.19,2.01*17
$GNGSA,A,3,69,80,73,86,,,,,,,,,2.33,1.19,2.01*19
$GPGSV,4,1,15,05,55,229,09,07,27,065,,08,09,038,,13,66,298,*77
$GPGSV,4,2,15,14,51,135,24,15,34,297,10,18,14,312,10,20,31,196,12*75
$GPGSV,4,3,15,21,37,185,23,22,40,154,32,23,03,329,,27,01,009,*72
$GPGSV,4,4,15,30,56,067,15,40,18,126,,49,32,185,*40
$GLGSV,3,1,09,69,36,126,27,70,71,325,,71,24,315,,73,16,206,23*60
$GLGSV,3,2,09,79,46,044,,80,69,175,20,86,09,297,14,87,14,338,*6B
$GLGSV,3,3,09,88,00,033,*5C
$GNGLL,5019.77968,N,00845.57639,E,120039.00,A,D*76
$GNRMC,120040.00,A,5019.77937,N,00845.57668,E,1.008,,201025,,,D*62
$GNVTG,,T,,M,1.008,N,1.868,K,D*36
$GNGGA,120040.00,5019.77937,N,00845.57668,E,2,10,1.19,175.6,M,47.4,M,,0000*4F
$GNGSA,A,3,14,22,21,20,30,15,,,,,,,2.33,1.19,2.01*17
$GNGSA,A,3,69,80,73,86,,,,,,,,,2.33,1.19,2.01*19
$GPGSV,4,1,15,05,55,229,08,07,27,065,,08,09,038,,13,66,298,*76
$GPGSV,4,2,15,14,51,135,24,15,34,297,10,18,14,312,11,20,31,196,11*77
$GPGSV,4,3,15,21,37,185,23,22,40,154,32,23,03,329,,27,01,009,*72
$GPGSV,4,4,15,30,56,067,15,40,18,126,,49,32,185,*40
$GLGSV,3,1,09,69,36,126,27,70,71,325,,71,24,315,,73,16,206,23*60
$GLGSV,3,2,09,79,46,044,,80,69,175,20,86,09,297,14,87,14,338,*6B
$GLGSV,3,3,09,88,00,033,*5C
$GNGLL,5019.77937,N,00845.57668,E,120040.00,A,D*76
$GNRMC,120041.00,A,5019.77939,N,00845.57697,E,1.166,,201025,,,D*64
$GNVTG,,T,,M,1.166,N,2.160,K,D*3D
$GNGGA,120041.00,5019.77939,N,00845.57697,E,2,11,1.19,176.1,M,47.4,M,,0000*45
$GNGSA,A,3,14,22,21,20,30,15,18,,,,,,2.33,1.19,2.01*1E
$GNGSA,A,3,69,80,73,86,,,,,,,,,2.33,1.19,2.01*19
$GPGSV,4,1,15,05,55,229,09,07,27,065,,08,09,038,,13,66,298,*77
$GPGSV,4,2,15,14,51,135,24,15,34,297,10,18,14,312,11,20,31,196,10*76
$GPGSV,4,3,15,21,37,185,22,22,40,154,32,23,03,329,,27,01,009,*73
$GPGSV,4,4,15,30,56,067,14,40,18,126,,49,32,185,*41
$GLGSV,3,1,09,69,36,126,27,70,71,325,,71,24,315,,73,16,206,23*60
$GLGSV,3,2,09,79,46,044,,80,69,175,20,86,09,297,15,87,14,338,*6A
$GLGSV,3,3,09,88,00,033,*5C
$GNGLL,5019.77939,N,00845.57697,E,120041.00,A,D*79
$GNRMC,120042.00,A,5019.77945,N,00845.57678,E,1.037,,201025,,,D*68
$GNVTG,,T,,M,1.037,N,1.920,K,D*37
$GNGGA,120042.00,5019.77945,N,00845.57678,E,2,11,1.11,177.1,M,47.4,M,,0000*45
$GNGSA,A,3,14,22,21,05,30,15,18,,,,,,2.01,1.11,1.67*13
$GNGSA,A,3,69,80,73,86,,,,,,,,,2.01,1.11,1.67*13
$GPGSV,4,1,15,05,55,229,10,07,27,065,,08,09,038,,13,66,298,13*7D
$GPGSV,4,2,15,14,51,135,24,15,34,297,10,18,14,312,11,20,31,196,09*7E
$GPGSV,4,3,15,21,37,185,22,22,40,154,31,23,03,329,,27,01,009,*70
$GPGSV,4,4,15,30,56,067,14,40,18,126,,49,32,185,*41
$GLGSV,3,1,09,69,36,126,27,70,71,325,,71,24,315,,73,16,206,23*60
$GLGSV,3,2,09,79,46,044,,80,69,175,20,86,09,297,15,87,14,338,*6A
$GLGSV,3,3,09,88,00,033,*5C
$GNGLL,5019.77945,N,00845.57678,E,120042.00,A,D*70
$GNRMC,120043.00,A,5019.77942,N,00845.57645,E,1.155,,201025,,,D*65
$GNVTG,,T,,M,1.155,N,2.139,K,D*31
$GNGGA,120043.00,5019.77942,N,00845.57645,E,2,11,1.11,177.9,M,47.4,M,,0000*45
$GNGSA,A,3,14,22,21,05,30,15,18,,,,,,2.01,1.11,1.67*13
$GNGSA,A,3,69,80,73,86,,,,,,,,,2.01,1.11,1.67*13
$GPGSV,4,1,15,05,55,229,09,07,27,065,,08,09,038,,13,66,298,11*77
$GPGSV,4,2,15,14,51,135,25,15,34,297,09,18,14,312,10,20,31,196,08*77
$GPGSV,4,3,15,21,37,185,22,22,40,154,31,23,03,329,,27,01,009,*70
$GPGSV,4,4,15,30,56,067,14,40,18,126,,49,32,185,*41
$GLGSV,3,1,09,69,36,126,27,70,71,325,,71,24,315,,73,16,206,24*67
$GLGSV,3,2,09,79,46,044,,80,69,175,19,86,09,297,16,87,14,338,*63
$GLGSV,3,3,09,88,00,033,*5C
$GNGLL,5019.77942,N,00845.57645,E,120043.00,A,D*78
$GNRMC,120044.00,A,5019.77943,N,00845.57643,E,0.464,,201025,,,D*63
$GNVTG,,T,,M,0.464,N,0.860,K,D*30
$GNGGA,120044.00,5019.77943,N,00845.57643,E,2,12,1.06,178.7,M,47.4,M,,0000*41
$GNGSA,A,3,14,22,21,05,20,30,15,18,,,,,1.98,1.06,1.67*14
$GNGSA,A,3,69,80,73,86,,,,,,,,,1.98,1.06,1.67*16
$GPGSV,4,1,15,05,55,229,15,07,27,065,,08,09,038,,13,66,298,10*7B
$GPGSV,4,2,15,14,51,135,25,15,34,297,08,18,14,312,09,20,31,196,12*75
$GPGSV,4,3,15,21,37,185,21,22,40,154,31,23,03,329,,27,01,009,*73
$GPGSV,4,4,15,30,56,067,14,40,18,126,,49,32,185,*41
$GLGSV,3,1,09,69,36,126,27,70,71,325,,71,24,315,,73,16,206,24*67
$GLGSV,3,2,09,79,46,044,,80,69,175,19,86,09,297,16,87,14,338,*63
$GLGSV,3,3,09,88,00,033,*5C
$GNGLL,5019.77943,N,00845.57643,E,120044.00,A,D*78
$GNRMC,120045.00,A,5019.77953,N,00845.57656,E,0.429,,201025,,,D*6E
$GNVTG,,T,,M,0.429,N,0.795,K,D*3C
$GNGGA,120045.00,5019.77953,N,00845.57656,E,2,12,1.24,179.3,M,47.4,M,,0000*40
$GNGSA,A,3,14,22,21,05,20,30,15,18,,,,,2.08,1.24,1.67*1E
$GNGSA,A,3,69,80,73,86,,,,,,,,,2.08,1.24,1.67*1C
$GPGSV,4,1,15,05,55,229,14,07,27,065,,08,09,038,,13,66,298,09*72
$GPGSV,4,2,15,14,51,135,25,15,34,297,11,18,14,312,11,20,31,196,11*77
$GPGSV,4,3,15,21,37,185,22,22,40,154,32,23,03,329,,27,01,009,*73
$GPGSV,4,4,15,30,56,067,13,40,18,126,,49,32,185,*46
$GLGSV,3,1,09,69,36,126,27,70,71,325,,71,24,315,,73,16,206,25*66
$GLGSV,3,2,09,79,46,044,,80,69,175,19,86,09,297,16,87,14,338,*63
$GLGSV,3,3,09,88,00,033,*5C
$GNGLL,5019.77953,N,00845.57656,E,120045.00,A,D*7C
$GNRMC,120046.00,A,5019.77937,N,00845.57606,E,1.103,,201025,,,A*63
$GNVTG,,T,,M,1.103,N,2.043,K,A*3B
$GNGGA,120046.00,5019.77937,N,00845.57606,E,1,12,1.06,179.2,M,47.4,M,,*46
$GNGSA,A,3,14,22,21,05,20,30,15,18,,,,,1.98,1.06,1.67*14
$GNGSA,A,3,69,80,73,86,,,,,,,,,1.98,1.06,1.67*16
$GPGSV,4,1,15,05,55,229,08,07,27,065,,08,09,038,,13,66,298,10*77
$GPGSV,4,2,15,14,51,135,25,15,34,297,12,18,14,312,10,20,31,196,10*74
$GPGSV,4,3,15,21,37,185,22,22,40,154,31,23,03,329,,27,01,009,*70
$GPGSV,4,4,15,30,56,067,11,40,18,126,,49,32,185,*44
$GLGSV,3,1,09,69,36,126,27,70,71,325,,71,24,315,,73,16,206,24*67
$GLGSV,3,2,09,79,46,044,06,80,69,175,19,86,09,297,17,87,14,338,*64
$GLGSV,3,3,09,88,00,033,*5C
$GNGLL,5019.77937,N,00845.57606,E,120046.00,A,A*7D
$GNRMC,120047.00,A,5019.77967,N,00845.57601,E,0.195,,201025,,,A*6E
$GNVTG,,T,,M,0.195,N,0.361,K,A*34
$GNGGA,120047.00,5019.77967,N,00845.57601,E,1,12,1.24,179.5,M,47.4,M,,*42
$GNGSA,A,3,14,22,13,21,05,20,30,15,18,,,,2.08,1.24,1.67*1C
$GNGSA,A,3,69,80,73,86,,,,,,,,,2.08,1.24,1.67*1C
$GPGSV,4,1,15,05,55,229,13,07,27,065,,08,09,038,,13,66,298,11*7C
$GPGSV,4,2,15,14,51,135,25,15,34,297,10,18,14,312,13,20,31,196,13*76
$GPGSV,4,3,15,21,37,185,23,22,40,154,31,23,03,329,,27,01,009,*71
$GPGSV,4,4,15,30,56,067,10,40,18,126,,49,32,185,*45
$GLGSV,3,1,09,69,36,126,27,70,71,325,,71,24,315,,73,16,206,24*67
$GLGSV,3,2,09,79,46,044,,80,69,175,19,86,09,297,17,87,14,338,*62
$GLGSV,3,3,09,88,00,033,*5C
$GNGLL,5019.77967,N,00845.57601,E,120047.00,A,A*7E
$GNRMC,120048.00,A,5019.77955,N,00845.57619,E,0.280,,201025,,,A*6E
$GNVTG,,T,,M,0.280,N,0.518,K,A*3B
$GNGGA,120048.00,5019.77955,N,00845.57619,E,1,12,1.24,179.4,M,47.4,M,,*44
$GNGSA,A,3,14,22,13,21,05,20,30,15,18,,,,2.08,1.24,1.67*1C
$GNGSA,A,3,69,80,73,86,,,,,,,,,2.08,1.24,1.67*1C
$GPGSV,4,1,15,05,55,229,14,07,27,065,,08,09,038,,13,66,298,11*7B
$GPGSV,4,2,15,14,51,135,25,15,34,297,07,18,14,312,14,20,31,196,09*7C
$GPGSV,4,3,15,21,37,185,24,22,40,154,31,23,03,329,,27,01,009,*76
$GPGSV,4,4,15,30,56,067,11,40,18,126,,49,32,185,*44
$GLGSV,3,1,09,69,36,126,27,70,71,325,,71,24,315,,73,16,206,24*67
$GLGSV,3,2,09,79,46,044,,80,69,175,19,86,09,297,17,87,14,338,*62
$GLGSV,3,3,09,88,00,033,*5C
$GNGLL,5019.77955,N,00845.57619,E,120048.00,A,A*79
$GNRMC,120049.00,A,5019.77899,N,00845.57651,E,0.794,,201025,,,A*62
$GNVTG,,T,,M,0.794,N,1.470,K,A*35
$GNGGA,120049.00,5019.77899,N,00845.57651,E,1,12,1.21,177.6,M,47.4,M,,*41
$GNGSA,A,3,14,22,13,21,05,20,15,18,,,,,1.91,1.21,1.48*14
$GNGSA,A,3,69,80,73,86,,,,,,,,,1.91,1.21,1.48*17
$GPGSV,4,1,15,05,55,229,10,07,27,065,,08,09,038,,13,66,298,11*7F
$GPGSV,4,2,15,14,51,135,26,15,34,297,08,18,14,312,07,20,31,196,15*7F
$GPGSV,4,3,15,21,37,185,24,22,40,154,31,23,03,329,,27,01,009,*76
$GPGSV,4,4,15,30,56,067,09,40,18,126,,49,32,185,*4D
$GLGSV,3,1,09,69,36,126,27,70,71,325,,71,24,315,,73,16,206,24*67
$GLGSV,3,2,09,79,46,044,,80,69,175,19,86,09,297,17,87,14,338,*62
$GLGSV,3,3,09,88,00,033,*5C
$GNGLL,5019.77899,N,00845.57651,E,120049.00,A,A*75
$GNRMC,120050.00,A,5019.77900,N,00845.57657,E,0.412,,201025,,,A*60
$GNVTG,,T,,M,0.412,N,0.762,K,A*39
$GNGGA,120050.00,5019.77900,N,00845.57657,E,1,12,1.02,178.0,M,47.4,M,,*46
$GNGSA,A,3,14,22,13,21,05,20,30,15,18,,,,1.79,1.02,1.47*1F
$GNGSA,A,3,69,80,73,86,,,,,,,,,1.79,1.02,1.47*1F
$GPGSV,4,1,15,05,55,229,15,07,27,065,,08,09,038,,13,66,298,10*7B
$GPGSV,4,2,15,14,51,135,26,15,34,297,10,18,14,312,09,20,31,196,17*7A
$GPGSV,4,3,15,21,37,185,24,22,40,154,31,23,03,329,,27,01,009,*76
$GPGSV,4,4,15,30,56,067,13,40,18,126,,49,32,185,*46
$GLGSV,3,1,09,69,36,126,26,70,71,325,,71,24,315,,73,16,206,24*66
$GLGSV,3,2,09,79,46,044,,80,69,175,18,86,09,297,16,87,14,338,*62
$GLGSV,3,3,09,88,00,033,*5C
$GNGLL,5019.77900,N,00845.57657,E,120050.00,A,A*7A
$GNRMC,120051.00,A,5019.77881,N,00845.57686,E,0.529,,201025,,,A*6C
$GNVTG,,T,,M,0.529,N,0.979,K,A*34
$GNGGA,120051.00,5019.77881,N,00845.57686,E,1,12,1.06,177.8,M,47.4,M,,*40
$GNGSA,A,3,14,22,21,05,20,30,15,18,,,,,1.98,1.06,1.67*14
$GNGSA,A,3,69,80,73,86,,,,,,,,,1.98,1.06,1.67*16
$GPGSV,4,1,15,05,55,229,16,07,27,065,,08,09,038,,13,66,298,09*70
$GPGSV,4,2,15,14,51,135,26,15,34,297,10,18,14,312,10,20,31,196,16*73
$GPGSV,4,3,15,21,37,185,24,22,40,154,31,23,03,329,,27,01,009,*76
$GPGSV,4,4,15,30,56,067,11,40,18,126,,49,32,185,*44
$GLGSV,3,1,09,69,36,126,25,70,71,325,,71,24,315,,73,16,206,25*64
$GLGSV,3,2,09,79,46,044,,80,69,175,19,86,09,297,15,87,14,338,*60
$GLGSV,3,3,09,88,00,033,*5C
$GNGLL,5019.77881,N,00845.57686,E,120051.00,A,A*7F
$GNRMC,120052.00,A,5019.77876,N,00845.57696,E,0.653,,201025,,,A*68
$GNVTG,,T,,M,0.653,N,1.210,K,A*3F
$GNGGA,120052.00,5019.77876,N,00845.57696,E,1,09,1.48,177.7,M,47.4,M,,*45
$GNGSA,A,3,14,22,21,15,18,,,,,,,,2.50,1.48,2.01*1E
$GNGSA,A,3,69,80,73,86,,,,,,,,,2.50,1.48,2.01*18
$GPGSV,4,1,15,05,55,229,08,07,27,065,,08,09,038,,13,66,298,08*7E
$GPGSV,4,2,15,14,51,135,26,15,34,297,10,18,14,312,12,20,31,196,06*70
$GPGSV,4,3,15,21,37,185,23,22,40,154,31,23,03,329,,27,01,009,*71
$GPGSV,4,4,15,30,56,067,11,40,18,126,,49,32,185,*44
$GLGSV,3,1,09,69,36,126,26,70,71,325,,71,24,315,,73,16,206,24*66
$GLGSV,3,2,09,79,46,044,08,80,69,175,20,86,09,297,16,87,14,338,*61
$GLGSV,3,3,09,88,00,033,*5C
$GNGLL,5019.77876,N,00845.57696,E,120052.00,A,A*75
$GNRMC,120053.00,A,5019.77892,N,00845.57686,E,0.370,,201025,,,A*66
$GNVTG,,T,,M,0.370,N,0.685,K,A*32
$GNGGA,120053.00,5019.77892,N,00845.57686,E,1,12,1.07,177.9,M,47.4,M,,*40
$GNGSA,A,3,14,22,13,21,05,30,15,18,,,,,1.82,1.07,1.48*13
$GNGSA,A,3,69,80,73,86,,,,,,,,,1.82,1.07,1.48*11
$GPGSV,4,1,15,05,55,229,12,07,27,065,,08,09,038,,13,66,298,08*75
$GPGSV,4,2,15,14,51,135,26,15,34,297,08,18,14,312,10,20,31,196,08*75
$GPGSV,4,3,15,21,37,185,23,22,40,154,31,23,03,329,,27,01,009,*71
$GPGSV,4,4,15,30,56,067,08,40,18,126,,49,32,185,*4C
$GLGSV,3,1,09,69,36,126,25,70,71,325,,71,24,315,,73,16,206,24*65
$GLGSV,3,2,09,79,46,044,,80,69,175,19,86,09,297,17,87,14,338,*62
$GLGSV,3,3,09,88,00,033,*5C
$GNGLL,5019.77892,N,00845.57686,E,120053.00,A,A*7F
$GNRMC,120054.00,A,5019.77930,N,00845.57654,E,0.359,,201025,,,A*6C
$GNVTG,,T,,M,0.359,N,0.664,K,A*36
$GNGGA,120054.00,5019.77930,N,00845.57654,E,1,12,1.02,179.0,M,47.4,M,,*43
$GNGSA,A,3,14,22,13,21,05,20,30,15,18,,,,1.79,1.02,1.47*1F
$GNGSA,A,3,69,80,73,86,,,,,,,,,1.79,1.02,1.47*1F
$GPGSV,4,1,15,05,55,229,15,07,27,065,,08,09,038,,13,66,298,14*7F
$GPGSV,4,2,15,14,51,135,26,15,34,297,10,18,14,312,10,20,31,196,11*74
$GPGSV,4,3,15,21,37,185,23,22,40,154,31,23,03,329,,27,01,009,*71
$GPGSV,4,4,15,30,56,067,09,40,18,126,,49,32,185,*4D
$GLGSV,3,1,09,69,36,126,25,70,71,325,,71,24,315,,73,16,206,24*65
$GLGSV,3,2,09,79,46,044,,80,69,175,18,86,09,297,17,87,14,338,*63
$GLGSV,3,3,09,88,00,033,*5C
$GNGLL,5019.77930,N,00845.57654,E,120054.00,A,A*7E
$GNRMC,120055.00,A,5019.77962,N,00845.57596,E,0.898,,201025,,,A*61
$GNVTG,,T,,M,0.898,N,1.663,K,A*36
$GNGGA,120055.00,5019.77962,N,00845.57596,E,1,12,1.01,180.3,M,47.4,M,,*4E
$GNGSA,A,3,14,22,13,21,05,20,30,15,18,,,,1.88,1.01,1.58*1C
$GNGSA,A,3,69,80,73,86,,,,,,,,,1.88,1.01,1.58*1C
$GPGSV,4,1,15,05,55,229,17,07,27,065,,08,09,038,,13,66,298,10*79
$GPGSV,4,2,15,14,51,135,27,15,34,297,10,18,14,312,12,20,31,196,14*72
$GPGSV,4,3,15,21,37,185,24,22,40,154,31,23,03,329,,27,01,009,*76
$GPGSV,4,4,15,30,56,067,11,40,18,126,,49,32,185,*44
$GLGSV,3,1,09,69,36,126,26,70,71,325,,71,24,315,,73,16,206,24*66
$GLGSV,3,2,09,79,46,044,,80,69,175,17,86,09,297,17,87,14,338,*6C
$GLGSV,3,3,09,88,00,033,*5C
$GNGLL,5019.77962,N,00845.57596,E,120055.00,A,A*75
$GNRMC,120056.00,A,5019.77965,N,00845.57582,E,0.725,,201025,,,A*69
