$GNRMC,054524.00,A,5019.81997,N,00845.49629,E,3.322,192.72,211025,,,A*72
$GNVTG,192.72,T,,M,3.322,N,6.153,K,A*2D
$GNGGA,054524.00,5019.81997,N,00845.49629,E,1,12,1.02,157.2,M,47.4,M,,*4C
$GNGSA,A,3,03,01,04,17,06,19,09,,,,,,2.00,1.02,1.71*1D
$GNGSA,A,3,83,67,68,84,82,,,,,,,,2.00,1.02,1.71*18
$GPGSV,3,1,11,01,48,140,39,02,,,23,03,75,052,43,04,64,180,45*45
$GPGSV,3,2,11,06,26,308,28,09,27,212,41,17,40,254,25,19,38,283,32*7E
$GPGSV,3,3,11,28,,,21,31,,,30,49,32,185,44*41
$GLGSV,2,1,08,67,52,041,27,68,72,247,41,75,04,341,24,76,13,033,26*66
$GLGSV,2,2,08,77,05,077,,82,34,160,31,83,78,248,42,84,31,322,34*66
$GNGLL,5019.81997,N,00845.49629,E,054524.00,A,A*7F
$GNRMC,054525.00,A,5019.81919,N,00845.49547,E,3.288,209.04,211025,,,A*7F
$GNVTG,209.04,T,,M,3.288,N,6.090,K,A*22
$GNGGA,054525.00,5019.81919,N,00845.49547,E,1,12,1.02,157.2,M,47.4,M,,*40
$GNGSA,A,3,03,01,04,17,06,19,09,,,,,,2.00,1.02,1.71*1D
$GNGSA,A,3,83,67,68,84,82,,,,,,,,2.00,1.02,1.71*18
$GPGSV,3,1,11,01,48,140,37,02,,,25,03,75,052,43,04,64,180,43*4B
$GPGSV,3,2,11,06,26,308,40,09,27,212,39,17,40,254,26,19,38,283,31*7F
$GPGSV,3,3,11,28,,,24,31,,,33,49,32,185,41*42
$GLGSV,2,1,08,67,52,041,33,68,72,247,36,75,04,341,23,76,13,033,31*62
$GLGSV,2,2,08,77,05,077,,82,34,160,26,83,78,248,37,84,31,322,34*62
$GNGLL,5019.81919,N,00845.49547,E,054525.00,A,A*73
$GNRMC,054526.00,A,5019.81841,N,00845.49444,E,3.486,216.82,211025,,,A*7A
$GNVTG,216.82,T,,M,3.486,N,6.456,K,A*24
$GNGGA,054526.00,5019.81841,N,00845.49444,E,1,12,1.02,157.3,M,47.4,M,,*4C
$GNGSA,A,3,03,01,04,17,06,19,09,,,,,,2.00,1.02,1.71*1D
$GNGSA,A,3,83,67,68,84,82,,,,,,,,2.00,1.02,1.71*18
$GPGSV,3,1,11,01,48,140,40,02,,,30,03,75,052,44,04,64,180,43*48
$GPGSV,3,2,11,06,26,308,40,09,27,212,42,17,40,254,35,19,38,283,26*77
$GPGSV,3,3,11,28,,,25,31,,,29,49,32,185,42*4B
$GLGSV,2,1,08,67,52,041,37,68,72,247,26,75,04,341,22,76,13,033,26*60
$GLGSV,2,2,08,77,05,077,,82,34,160,32,83,78,248,37,84,31,322,25*67
$GNGLL,5019.81841,N,00845.49444,E,054526.00,A,A*7E
$GNRMC,054527.00,A,5019.81766,N,00845.49331,E,3.581,223.62,211025,,,A*7A
$GNVTG,223.62,T,,M,3.581,N,6.632,K,A*2A
$GNGGA,054527.00,5019.81766,N,00845.49331,E,1,12,1.02,157.1,M,47.4,M,,*40
$GNGSA,A,3,03,01,04,17,06,19,09,,,,,,2.00,1.02,1.71*1D
$GNGSA,A,3,83,67,68,84,82,,,,,,,,2.00,1.02,1.71*18
$GPGSV,3,1,11,01,48,140,39,02,,,32,03,75,052,44,04,64,180,42*45
$GPGSV,3,2,11,06,26,308,35,09,27,212,40,17,40,254,35,19,38,283,27*76
$GPGSV,3,3,11,28,,,26,31,,,27,49,32,185,38*4B
$GLGSV,2,1,08,67,52,041,37,68,72,248,31,75,04,341,22,76,13,033,25*6A
$GLGSV,2,2,08,77,05,077,,82,34,160,35,83,78,248,35,84,31,322,31*67
$GNGLL,5019.81766,N,00845.49331,E,054527.00,A,A*70
$GNRMC,054528.00,A,5019.81697,N,00845.49208,E,3.662,228.39,211025,,,A*7A
$GNVTG,228.39,T,,M,3.662,N,6.781,K,A*28
$GNGGA,054528.00,5019.81697,N,00845.49208,E,1,12,1.02,157.0,M,47.4,M,,*4A
$GNGSA,A,3,03,01,04,17,06,19,09,,,,,,2.00,1.02,1.71*1D
$GNGSA,A,3,83,67,68,84,82,,,,,,,,2.00,1.02,1.71*18
$GPGSV,3,1,11,01,48,140,45,02,,,26,03,75,052,46,04,64,180,45*4E
$GPGSV,3,2,11,06,26,308,32,09,27,212,44,17,40,254,39,19,38,283,33*7C
$GPGSV,3,3,11,28,,,34,31,,,27,49,32,185,43*44
$GLGSV,2,1,08,67,52,041,35,68,72,248,31,75,04,341,22,76,13,033,23*6E
$GLGSV,2,2,08,77,05,077,,82,34,160,32,83,78,248,31,84,31,322,26*62
$GNGLL,5019.81697,N,00845.49208,E,054528.00,A,A*7B
$GNRMC,054529.00,A,5019.81626,N,00845.49083,E,3.703,231.86,211025,,,A*7A
$GNVTG,231.86,T,,M,3.703,N,6.857,K,A*26
$GNGGA,054529.00,5019.81626,N,00845.49083,E,1,12,1.02,156.8,M,47.4,M,,*49
$GNGSA,A,3,03,01,04,17,06,19,09,,,,,,2.00,1.02,1.71*1D
$GNGSA,A,3,83,67,68,84,82,,,,,,,,2.00,1.02,1.71*18
$GPGSV,3,1,11,01,48,140,45,02,,,38,03,75,052,46,04,64,180,46*42
$GPGSV,3,2,11,06,26,308,41,09,27,212,42,17,40,254,42,19,38,283,35*74
$GPGSV,3,3,11,28,,,28,31,,,31,49,32,185,41*4C
$GLGSV,2,1,08,67,52,041,33,68,72,248,26,75,04,341,21,76,13,033,23*6D
$GLGSV,2,2,08,77,05,077,,82,34,160,38,83,78,248,35,84,31,322,32*69
$GNGLL,5019.81626,N,00845.49083,E,054529.00,A,A*71
$GNRMC,054530.00,A,5019.81569,N,00845.48960,E,3.478,233.59,211025,,,A*70
$GNVTG,233.59,T,,M,3.478,N,6.441,K,A*22
$GNGGA,054530.00,5019.81569,N,00845.48960,E,1,12,1.02,156.7,M,47.4,M,,*43
$GNGSA,A,3,03,01,04,17,06,19,09,,,,,,2.00,1.02,1.71*1D
$GNGSA,A,3,83,67,68,84,82,,,,,,,,2.00,1.02,1.71*18
$GPGSV,3,1,11,01,48,140,40,02,,,30,03,75,052,41,04,64,180,39*40
$GPGSV,3,2,11,06,26,308,29,09,27,212,37,17,40,254,40,19,38,283,29*77
$GPGSV,3,3,11,28,,,29,31,,,28,49,32,185,*40
$GLGSV,2,1,08,67,52,041,32,68,72,248,34,75,04,341,25,76,13,033,25*6D
$GLGSV,2,2,08,77,05,077,,82,34,160,37,83,78,248,39,84,31,322,40*6F
$GNGLL,5019.81569,N,00845.48960,E,054530.00,A,A*74
$GNRMC,054531.00,A,5019.81518,N,00845.48844,E,3.360,234.46,211025,,,A*77
$GNVTG,234.46,T,,M,3.360,N,6.223,K,A*27
$GNGGA,054531.00,5019.81518,N,00845.48844,E,1,12,1.02,156.6,M,47.4,M,,*42
$GNGSA,A,3,03,01,04,17,06,19,09,,,,,,2.00,1.02,1.71*1D
$GNGSA,A,3,83,67,68,84,82,,,,,,,,2.00,1.02,1.71*18
$GPGSV,3,1,11,01,48,140,40,02,,,32,03,75,052,39,04,64,180,40*43
$GPGSV,3,2,11,06,26,308,29,09,27,212,37,17,40,254,41,19,38,283,35*7B
$GPGSV,3,3,11,28,,,30,31,,,35,49,32,185,*44
$GLGSV,3,1,09,67,52,041,38,68,72,248,27,69,21,231,,75,04,341,24*6C
$GLGSV,3,2,09,76,13,033,26,77,05,077,22,82,34,160,32,83,78,248,36*6B
$GLGSV,3,3,09,84,31,322,31*53
$GNGLL,5019.81518,N,00845.48844,E,054531.00,A,A*74
$GNRMC,054532.00,A,5019.81456,N,00845.48730,E,3.471,232.15,211025,,,A*74
$GNVTG,232.15,T,,M,3.471,N,6.428,K,A*2D
$GNGGA,054532.00,5019.81456,N,00845.48730,E,1,12,1.02,156.6,M,47.4,M,,*46
$GNGSA,A,3,03,01,04,17,06,19,09,,,,,,2.00,1.02,1.71*1D
$GNGSA,A,3,83,67,68,84,82,,,,,,,,2.00,1.02,1.71*18
$GPGSV,3,1,11,01,48,140,36,02,,,24,03,75,052,39,04,64,180,36*44
$GPGSV,3,2,11,06,26,308,30,09,27,212,36,17,40,254,40,19,38,283,42*73
$GPGSV,3,3,11,28,,,28,31,,,34,49,32,185,*4C
$GLGSV,3,1,09,67,52,041,36,68,72,248,28,69,21,231,37,75,04,341,24*69
$GLGSV,3,2,09,76,13,033,25,77,05,077,,82,34,160,26,83,78,248,36*6D
$GLGSV,3,3,09,84,31,322,39*5B
$GNGLL,5019.81456,N,00845.48730,E,054532.00,A,A*70
$GNRMC,054533.00,A,5019.81390,N,00845.48603,E,3.655,231.39,211025,,,A*70
$GNVTG,231.39,T,,M,3.655,N,6.770,K,A*2A
$GNGGA,054533.00,5019.81390,N,00845.48603,E,1,12,1.02,156.8,M,47.4,M,,*45
$GNGSA,A,3,03,01,04,17,06,19,09,,,,,,2.00,1.02,1.71*1D
$GNGSA,A,3,83,67,68,84,82,,,,,,,,2.00,1.02,1.71*18
$GPGSV,3,1,11,01,48,140,42,02,,,33,03,75,052,44,04,64,180,42*48
$GPGSV,3,2,11,06,26,308,36,09,27,212,39,17,40,254,45,19,38,283,45*78
$GPGSV,3,3,11,28,,,31,31,,,38,49,32,185,37*4C
$GLGSV,3,1,09,67,52,041,33,68,72,248,34,69,21,231,37,75,04,341,19*6F
$GLGSV,3,2,09,76,13,033,31,77,05,077,,82,34,160,31,83,78,248,39*61
$GLGSV,3,3,09,84,31,322,36*54
$GNGLL,5019.81390,N,00845.48603,E,054533.00,A,A*7D
$GNRMC,054534.00,A,5019.81333,N,00845.48480,E,3.529,232.74,211025,,,A*75
$GNVTG,232.74,T,,M,3.529,N,6.537,K,A*29
$GNGGA,054534.00,5019.81333,N,00845.48480,E,1,12,1.02,156.8,M,47.4,M,,*42
$GNGSA,A,3,03,01,04,17,06,19,09,,,,,,2.00,1.02,1.71*1D
$GNGSA,A,3,83,67,68,84,82,,,,,,,,2.00,1.02,1.71*18
$GPGSV,3,1,11,01,48,140,42,02,,,29,03,75,052,44,04,64,180,39*4F
$GPGSV,3,2,11,06,26,308,34,09,27,212,39,17,40,254,46,19,38,283,44*78
$GPGSV,3,3,11,28,,,28,31,,,29,49,32,185,30*43
$GLGSV,3,1,09,67,52,041,31,68,72,248,37,69,21,231,41,75,04,341,18*6E
$GLGSV,3,2,09,76,13,033,32,77,05,077,,82,34,160,29,83,78,248,38*6A
$GLGSV,3,3,09,84,31,322,45*50
$GNGLL,5019.81333,N,00845.48480,E,054534.00,A,A*7A
$GNRMC,054535.00,A,5019.81282,N,00845.48352,E,3.378,235.47,211025,,,A*72
$GNVTG,235.47,T,,M,3.378,N,6.255,K,A*2F
$GNGGA,054535.00,5019.81282,N,00845.48352,E,1,12,1.02,156.8,M,47.4,M,,*40
$GNGSA,A,3,03,01,04,17,06,19,09,,,,,,2.00,1.02,1.71*1D
$GNGSA,A,3,83,67,68,84,82,,,,,,,,2.00,1.02,1.71*18
$GPGSV,3,1,11,01,48,140,40,02,,,33,03,75,052,45,04,64,180,40*49
$GPGSV,3,2,11,06,26,308,30,09,27,212,41,17,40,254,46,19,38,283,45*72
$GPGSV,3,3,11,28,,,27,31,,,36,49,32,185,34*46
$GLGSV,3,1,09,67,52,041,38,68,72,248,38,69,21,231,39,75,04,341,20*6C
$GLGSV,3,2,09,76,13,033,24,77,05,077,,82,34,160,31,83,78,248,41*6A
$GLGSV,3,3,09,84,31,322,41*54
$GNGLL,5019.81282,N,00845.48352,E,054535.00,A,A*78
$GNRMC,054536.00,A,5019.81220,N,00845.48210,E,3.729,235.09,211025,,,A*74
$GNVTG,235.09,T,,M,3.729,N,6.906,K,A*28
$GNGGA,054536.00,5019.81220,N,00845.48210,E,1,12,1.02,157.3,M,47.4,M,,*46
$GNGSA,A,3,03,01,04,17,06,19,09,,,,,,2.00,1.02,1.71*1D
$GNGSA,A,3,83,67,68,84,82,,,,,,,,2.00,1.02,1.71*18
$GPGSV,3,1,11,01,48,140,38,02,,,29,03,75,052,43,04,64,180,38*44
$GPGSV,3,2,11,06,26,308,29,09,27,212,36,17,40,254,43,19,38,283,43*79
$GPGSV,3,3,11,28,,,27,31,,,36,49,32,185,29*4A
$GLGSV,3,1,09,67,52,041,37,68,72,248,47,69,21,231,47,75,04,341,20*62
$GLGSV,3,2,09,76,13,033,30,77,05,077,,82,34,160,29,83,78,248,48*6F
$GLGSV,3,3,09,84,31,322,43*56
$GNGLL,5019.81220,N,00845.48210,E,054536.00,A,A*74
$GNRMC,054537.00,A,5019.81171,N,00845.48078,E,3.465,237.34,211025,,,A*79
$GNVTG,237.34,T,,M,3.465,N,6.417,K,A*22
$GNGGA,054537.00,5019.81171,N,00845.48078,E,1,12,1.02,157.5,M,47.4,M,,*4A
$GNGSA,A,3,03,01,04,17,06,19,09,,,,,,2.00,1.02,1.71*1D
$GNGSA,A,3,83,67,68,84,82,,,,,,,,2.00,1.02,1.71*18
$GPGSV,3,1,12,01,48,140,41,02,,,29,03,75,052,44,04,64,180,39*4F
$GPGSV,3,2,12,06,26,308,33,09,27,212,29,17,40,254,44,19,38,283,42*79
$GPGSV,3,3,12,25,00,010,,28,,,32,31,,,38,49,32,185,33*7E
$GLGSV,3,1,09,67,52,041,24,68,72,248,39,69,21,231,38,75,04,341,20*61
$GLGSV,3,2,09,76,13,033,34,77,05,077,,82,34,160,29,83,78,248,41*62
$GLGSV,3,3,09,84,31,322,35*57
$GNGLL,5019.81171,N,00845.48078,E,054537.00,A,A*7E
$GNRMC,054538.00,A,5019.81120,N,00845.47945,E,3.572,238.76,211025,,,A*74
$GNVTG,238.76,T,,M,3.572,N,6.616,K,A*2F
$GNGGA,054538.00,5019.81120,N,00845.47945,E,1,12,1.02,157.5,M,47.4,M,,*49
$GNGSA,A,3,03,01,04,17,06,19,09,,,,,,2.00,1.02,1.71*1D
$GNGSA,A,3,83,67,68,84,82,,,,,,,,2.00,1.02,1.71*18
$GPGSV,3,1,12,01,48,140,44,02,,,30,03,75,052,46,04,64,180,42*4C
$GPGSV,3,2,12,06,26,308,33,09,27,212,44,17,40,254,46,19,38,283,47*75
$GPGSV,3,3,12,25,00,010,,28,,,33,31,,,38,49,32,185,34*78
$GLGSV,3,1,09,67,52,041,33,68,72,248,39,69,21,231,40,75,04,341,18*63
$GLGSV,3,2,09,76,13,033,31,77,05,077,,82,34,160,28,83,78,248,39*69
$GLGSV,3,3,09,84,31,322,31*53
$GNGLL,5019.81120,N,00845.47945,E,054538.00,A,A*7D
$GNRMC,054539.00,A,5019.81069,N,00845.47808,E,3.510,240.03,211025,,,A*78
$GNVTG,240.03,T,,M,3.510,N,6.501,K,A*23
$GNGGA,054539.00,5019.81069,N,00845.47808,E,1,12,1.02,157.7,M,47.4,M,,*4E
$GNGSA,A,3,03,01,04,17,06,19,09,,,,,,2.00,1.02,1.71*1D
$GNGSA,A,3,83,67,68,84,82,,,,,,,,2.00,1.02,1.71*18
$GPGSV,3,1,12,01,48,140,42,02,,,31,03,75,052,46,04,64,180,43*4A
$GPGSV,3,2,12,06,26,308,36,09,27,212,43,17,40,254,47,19,38,283,45*74
$GPGSV,3,3,12,25,00,010,,28,,,27,31,,,33,49,32,185,34*76
$GLGSV,3,1,09,67,52,041,37,68,72,248,37,69,21,231,38,75,04,341,18*66
$GLGSV,3,2,09,76,13,033,30,77,05,077,,82,34,160,28,83,78,248,39*68
$GLGSV,3,3,09,84,31,322,32*50
$GNGLL,5019.81069,N,00845.47808,E,054539.00,A,A*78
$GNRMC,054540.00,A,5019.81015,N,00845.47699,E,3.262,234.79,211025,,,A*77
$GNVTG,234.79,T,,M,3.262,N,6.042,K,A*2D
$GNGGA,054540.00,5019.81015,N,00845.47699,E,1,12,1.02,157.2,M,47.4,M,,*48
$GNGSA,A,3,03,01,04,17,06,19,09,,,,,,1.99,1.02,1.71*1E
$GNGSA,A,3,83,67,68,84,82,,,,,,,,1.99,1.02,1.71*1B
$GPGSV,3,1,12,01,48,140,42,02,,,30,03,75,052,46,04,64,180,41*49
$GPGSV,3,2,12,06,26,308,41,09,27,212,42,17,40,254,47,19,38,283,43*73
$GPGSV,3,3,12,25,00,010,,28,,,26,31,,,33,49,32,185,35*76
$GLGSV,3,1,09,67,52,041,43,68,72,248,39,69,21,231,40,75,04,341,18*64
$GLGSV,3,2,09,76,13,033,25,77,05,077,,82,34,160,30,83,78,248,40*6B
$GLGSV,3,3,09,84,31,322,35*57
$GNGLL,5019.81015,N,00845.47699,E,054540.00,A,A*7B
$GNRMC,054541.00,A,5019.80963,N,00845.47574,E,3.494,236.93,211025,,,A*76
$GNVTG,236.93,T,,M,3.494,N,6.472,K,A*23
$GNGGA,054541.00,5019.80963,N,00845.47574,E,1,12,1.02,157.2,M,47.4,M,,*40
$GNGSA,A,3,03,01,04,17,06,19,09,,,,,,1.99,1.02,1.71*1E
$GNGSA,A,3,83,67,68,84,82,,,,,,,,1.99,1.02,1.71*1B
$GPGSV,3,1,12,01,48,140,43,02,,,27,03,75,052,44,04,64,180,42*4F
$GPGSV,3,2,12,06,26,308,37,09,27,212,39,17,40,254,43,19,38,283,41*78
$GPGSV,3,3,12,25,00,010,,28,,,23,31,,,33,49,32,185,33*75
$GLGSV,3,1,09,67,52,041,43,68,72,248,39,69,21,231,41,75,04,341,20*6E
$GLGSV,3,2,09,76,13,033,28,77,05,077,,82,34,160,29,83,78,248,40*6E
$GLGSV,3,3,09,84,31,322,43*56
$GNGLL,5019.80963,N,00845.47574,E,054541.00,A,A*73
$GNRMC,054542.00,A,5019.80904,N,00845.47439,E,3.556,237.19,211025,,,A*70
$GNVTG,237.19,T,,M,3.556,N,6.585,K,A*26
$GNGGA,054542.00,5019.80904,N,00845.47439,E,1,12,1.02,157.2,M,47.4,M,,*4A
$GNGSA,A,3,03,01,04,17,06,19,09,,,,,,1.99,1.02,1.71*1E
$GNGSA,A,3,83,67,68,84,82,,,,,,,,1.99,1.02,1.71*1B
$GPGSV,3,1,12,01,48,140,43,02,,,31,03,75,052,44,04,64,180,41*4B
$GPGSV,3,2,12,06,26,308,36,09,27,212,41,17,40,254,44,19,38,283,42*72
$GPGSV,3,3,12,25,00,010,,28,,,23,31,,,30,49,32,185,35*70
$GLGSV,3,1,09,67,52,041,44,68,72,248,37,69,21,231,44,75,04,341,20*62
$GLGSV,3,2,09,76,13,033,32,77,05,077,,82,34,160,33,83,78,248,38*61
$GLGSV,3,3,09,84,31,322,38*5A
$GNGLL,5019.80904,N,00845.47439,E,054542.00,A,A*79
$GNRMC,054543.00,A,5019.80850,N,00845.47302,E,3.486,235.69,211025,,,A*77
$GNVTG,235.69,T,,M,3.486,N,6.457,K,A*21
$GNGGA,054543.00,5019.80850,N,00845.47302,E,1,12,1.02,157.7,M,47.4,M,,*41
$GNGSA,A,3,03,01,04,17,06,19,09,,,,,,1.99,1.02,1.72*1D
$GNGSA,A,3,83,67,68,84,82,,,,,,,,1.99,1.02,1.72*18
$GPGSV,3,1,12,01,48,140,47,02,18,143,31,03,75,052,48,04,64,180,46*7B
$GPGSV,3,2,12,06,26,308,42,09,27,212,42,17,40,254,50,19,38,283,48*7D
$GPGSV,3,3,12,25,00,010,,28,,,23,31,,,26,49,32,185,29*7A
$GLGSV,3,1,09,67,52,041,45,68,72,248,43,69,21,231,47,75,04,341,22*61
$GLGSV,3,2,09,76,13,033,37,77,05,077,,82,34,160,39,83,78,248,45*64
$GLGSV,3,3,09,84,31,322,40*55
$GNGLL,5019.80850,N,00845.47302,E,054543.00,A,A*77
$GNRMC,054544.00,A,5019.80786,N,00845.47187,E,3.536,232.40,211025,,,A*7D
$GNVTG,232.40,T,,M,3.536,N,6.549,K,A*29
$GNGGA,054544.00,5019.80786,N,00845.47187,E,1,12,1.02,157.6,M,47.4,M,,*4C
$GNGSA,A,3,03,01,04,17,06,19,09,,,,,,1.99,1.02,1.72*1D
$GNGSA,A,3,83,67,68,84,82,,,,,,,,1.99,1.02,1.72*18
$GPGSV,3,1,12,01,48,140,40,02,18,143,25,03,75,052,45,04,64,180,41*73
$GPGSV,3,2,12,06,26,308,35,09,27,212,37,17,40,254,43,19,38,283,43*76
$GPGSV,3,3,12,25,00,010,,28,,,24,31,,,33,49,32,185,34*75
$GLGSV,3,1,09,67,52,041,38,68,72,248,36,69,21,231,37,75,04,341,21*6D
$GLGSV,3,2,09,76,13,033,30,77,05,077,,82,34,160,26,83,78,248,37*68
$GLGSV,3,3,09,84,31,322,37*55
$GNGLL,5019.80786,N,00845.47187,E,054544.00,A,A*7B
$GNRMC,054545.00,A,5019.80718,N,00845.47106,E,3.107,226.39,211025,,,A*7F
$GNVTG,226.39,T,,M,3.107,N,5.754,K,A*29
$GNGGA,054545.00,5019.80718,N,00845.47106,E,1,12,1.02,157.4,M,47.4,M,,*41
$GNGSA,A,3,03,01,04,17,06,19,09,,,,,,1.99,1.02,1.72*1D
$GNGSA,A,3,83,67,68,84,82,,,,,,,,1.99,1.02,1.72*18
$GPGSV,3,1,12,01,48,140,32,02,18,143,29,03,75,052,44,04,64,180,40*7A
$GPGSV,3,2,12,06,26,308,34,09,27,212,32,17,40,254,43,19,38,283,41*70
$GPGSV,3,3,12,25,00,010,,28,,,29,31,,,34,49,32,185,37*7C
$GLGSV,3,1,09,67,52,041,35,68,72,248,36,69,21,231,40,75,04,341,*63
$GLGSV,3,2,09,76,13,033,26,77,05,077,,82,34,160,38,83,78,248,38*6F
$GLGSV,3,3,09,84,31,322,38*5A
$GNGLL,5019.80718,N,00845.47106,E,054545.00,A,A*74
$GNRMC,054546.00,A,5019.80620,N,00845.47072,E,3.625,199.27,211025,,,A*7B
$GNVTG,199.27,T,,M,3.625,N,6.714,K,A*21
$GNGGA,054546.00,5019.80620,N,00845.47072,E,1,12,1.02,157.3,M,47.4,M,,*4D
$GNGSA,A,3,03,01,04,17,06,19,09,,,,,,1.99,1.02,1.72*1D
$GNGSA,A,3,83,67,68,84,82,,,,,,,,1.99,1.02,1.72*18
$GPGSV,3,1,12,01,48,140,42,02,18,143,28,03,75,052,43,04,64,180,44*7F
$GPGSV,3,2,12,06,26,308,28,09,27,212,32,17,40,254,42,19,38,283,39*73
$GPGSV,3,3,12,25,00,010,,28,,,26,31,,,29,49,32,185,37*7F
$GLGSV,3,1,09,67,52,041,41,68,72,248,34,69,21,231,38,75,04,341,22*6D
$GLGSV,3,2,09,76,13,033,26,77,05,077,27,82,34,160,39,83,78,248,42*66
$GLGSV,3,3,09,84,31,322,40*55
$GNGLL,5019.80620,N,00845.47072,E,054546.00,A,A*7F
$GNRMC,054547.00,A,5019.80521,N,00845.47091,E,3.520,182.57,211025,,,A*7E
$GNVTG,182.57,T,,M,3.520,N,6.518,K,A*24
$GNGGA,054547.00,5019.80521,N,00845.47091,E,1,12,1.02,157.1,M,47.4,M,,*41
$GNGSA,A,3,03,01,04,17,06,19,09,,,,,,1.99,1.02,1.72*1D
$GNGSA,A,3,83,67,68,84,82,,,,,,,,1.99,1.02,1.72*18
$GPGSV,4,1,13,01,48,140,43,02,18,143,35,03,75,052,45,04,64,180,42*74
$GPGSV,4,2,13,06,26,308,41,09,27,212,35,17,40,254,45,19,38,283,43*77
$GPGSV,4,3,13,25,00,010,,28,,,24,31,,,31,33,28,210,31*7D
$GPGSV,4,4,13,49,32,185,40*4F
$GLGSV,3,1,09,67,51,041,39,68,72,248,35,69,21,231,34,75,04,341,*6C
$GLGSV,3,2,09,76,13,033,25,77,05,077,,82,34,160,43,83,78,248,40*6F
$GLGSV,3,3,09,84,31,322,41*54
$GNGLL,5019.80521,N,00845.47091,E,054547.00,A,A*71
$GNRMC,054548.00,A,5019.80420,N,00845.47126,E,3.624,173.34,211025,,,A*70
$GNVTG,173.34,T,,M,3.624,N,6.712,K,A*20
$GNGGA,054548.00,5019.80420,N,00845.47126,E,1,12,1.02,157.2,M,47.4,M,,*40
$GNGSA,A,3,03,01,04,17,06,19,09,,,,,,1.99,1.02,1.72*1D
$GNGSA,A,3,83,67,68,84,82,,,,,,,,1.99,1.02,1.72*18
$GPGSV,4,1,13,01,48,140,44,02,18,143,34,03,75,052,44,04,64,180,44*75
$GPGSV,4,2,13,06,26,308,40,09,27,212,37,17,40,254,40,19,38,283,44*76
$GPGSV,4,3,13,25,00,010,,28,,,23,31,,,30,33,28,210,30*7A
$GPGSV,4,4,13,49,32,185,34*4C
$GLGSV,3,1,09,67,51,041,39,68,72,248,34,69,21,231,29,75,04,341,23*60
$GLGSV,3,2,09,76,13,033,25,77,05,077,,82,34,160,41,83,78,248,38*62
$GLGSV,3,3,09,84,31,322,38*5A
$GNGLL,5019.80420,N,00845.47126,E,054548.00,A,A*73
$GNRMC,054549.00,A,5019.80315,N,00845.47162,E,3.590,170.35,211025,,,A*7E
$GNVTG,170.35,T,,M,3.590,N,6.649,K,A*21
$GNGGA,054549.00,5019.80315,N,00845.47162,E,1,12,1.02,156.9,M,47.4,M,,*4A
$GNGSA,A,3,03,01,04,17,06,19,09,,,,,,1.99,1.02,1.72*1D
$GNGSA,A,3,83,67,68,84,82,,,,,,,,1.99,1.02,1.72*18
$GPGSV,3,1,12,01,48,140,41,02,18,143,28,03,75,052,41,04,64,180,35*78
$GPGSV,3,2,12,06,26,308,40,09,27,212,32,17,40,254,24,19,38,283,38*7C
$GPGSV,3,3,12,25,00,010,,28,,,24,31,,,30,49,32,185,35*77
$GLGSV,3,1,09,67,51,041,39,68,72,248,37,69,21,232,28,75,04,341,22*60
$GLGSV,3,2,09,76,13,033,22,77,05,077,,82,34,160,45,83,78,248,40*6E
$GLGSV,3,3,09,84,31,322,38*5A
$GNGLL,5019.80315,N,00845.47162,E,054549.00,A,A*73
$GNRMC,054550.00,A,5019.80197,N,00845.47202,E,3.589,167.64,211025,,,A*71
$GNVTG,167.64,T,,M,3.589,N,6.647,K,A*25
$GNGGA,054550.00,5019.80197,N,00845.47202,E,1,12,1.02,156.2,M,47.4,M,,*44
$GNGSA,A,3,03,01,04,17,06,19,09,,,,,,1.99,1.02,1.72*1D
$GNGSA,A,3,83,67,68,84,82,,,,,,,,1.99,1.02,1.72*18
$GPGSV,3,1,12,01,48,140,41,02,18,143,28,03,75,052,42,04,64,180,38*76
$GPGSV,3,2,12,06,26,308,39,09,27,212,32,17,40,254,31,19,38,283,30*7E
$GPGSV,3,3,12,25,00,010,,28,,,24,31,,,30,49,32,185,41*74
$GLGSV,3,1,09,67,51,041,41,68,72,248,31,69,21,232,33,75,04,341,22*63
$GLGSV,3,2,09,76,13,033,32,77,05,077,,82,34,160,47,83,78,248,39*63
$GLGSV,3,3,09,84,31,322,38*5A
$GNGLL,5019.80197,N,00845.47202,E,054550.00,A,A*76
$GNRMC,054551.00,A,5019.80081,N,00845.47229,E,3.647,169.54,211025,,,A*73
$GNVTG,169.54,T,,M,3.647,N,6.755,K,A*2B
$GNGGA,054551.00,5019.80081,N,00845.47229,E,1,12,1.02,155.9,M,47.4,M,,*42
$GNGSA,A,3,03,01,04,17,06,19,09,,,,,,1.99,1.02,1.72*1D
$GNGSA,A,3,83,67,68,84,82,,,,,,,,1.99,1.02,1.72*18
$GPGSV,3,1,12,01,48,140,42,02,18,143,26,03,75,052,41,04,64,180,39*79
$GPGSV,3,2,12,06,26,308,36,09,27,212,40,17,40,254,31,19,38,283,30*74
$GPGSV,3,3,12,25,00,010,,28,,,24,31,,,34,49,32,185,37*71
$GLGSV,3,1,09,67,51,041,42,68,72,248,36,69,21,232,33,75,04,341,21*64
$GLGSV,3,2,09,76,13,033,36,77,05,077,,82,34,160,45,83,78,248,40*6B
$GLGSV,3,3,09,84,31,322,39*5B
$GNGLL,5019.80081,N,00845.47229,E,054551.00,A,A*78
$GNRMC,054552.00,A,5019.79975,N,00845.47266,E,3.657,168.34,211025,,,A*79
$GNVTG,168.34,T,,M,3.657,N,6.772,K,A*28
$GNGGA,054552.00,5019.79975,N,00845.47266,E,1,12,1.02,156.0,M,47.4,M,,*44
$GNGSA,A,3,03,01,04,17,06,19,09,,,,,,1.99,1.02,1.72*1D
$GNGSA,A,3,83,67,68,84,82,,,,,,,,1.99,1.02,1.72*18
$GPGSV,3,1,12,01,48,140,40,02,18,143,27,03,75,052,39,04,64,180,39*75
$GPGSV,3,2,12,06,26,308,31,09,27,212,40,17,40,254,32,19,38,283,31*71
$GPGSV,3,3,12,25,00,010,,28,,,23,31,,,34,49,32,185,37*76
$GLGSV,3,1,09,67,51,041,35,68,72,248,31,69,21,232,33,75,04,341,22*60
$GLGSV,3,2,09,76,13,033,30,77,05,077,,82,34,160,42,83,78,248,40*6A
$GLGSV,3,3,09,84,31,322,37*55
$GNGLL,5019.79975,N,00845.47266,E,054552.00,A,A*74
$GNRMC,054553.00,A,5019.79873,N,00845.47314,E,3.505,167.20,211025,,,A*75
$GNVTG,167.20,T,,M,3.505,N,6.491,K,A*28
$GNGGA,054553.00,5019.79873,N,00845.47314,E,1,12,1.02,155.4,M,47.4,M,,*41
$GNGSA,A,3,03,01,04,17,06,19,09,,,,,,1.99,1.02,1.72*1D
$GNGSA,A,3,83,67,68,84,82,,,,,,,,1.99,1.02,1.72*18
$GPGSV,3,1,12,01,48,140,41,02,18,143,28,03,75,052,41,04,64,180,40*7A
$GPGSV,3,2,12,06,26,308,33,09,27,212,36,17,40,254,35,19,38,283,31*75
$GPGSV,3,3,12,25,00,010,,28,,,24,31,,,37,49,32,185,36*73
$GLGSV,3,1,09,67,51,041,38,68,72,248,41,69,21,232,34,75,04,341,22*6D
$GLGSV,3,2,09,76,13,033,28,77,05,077,,82,34,160,44,83,78,248,42*67
$GLGSV,3,3,09,84,31,322,33*51
$GNGLL,5019.79873,N,00845.47314,E,054553.00,A,A*76
$GNRMC,054554.00,A,5019.79772,N,00845.47364,E,3.611,167.06,211025,,,A*79
$GNVTG,167.06,T,,M,3.611,N,6.688,K,A*20
$GNGGA,054554.00,5019.79772,N,00845.47364,E,1,12,1.02,154.9,M,47.4,M,,*43
$GNGSA,A,3,03,01,04,17,06,19,09,,,,,,1.99,1.02,1.72*1D
$GNGSA,A,3,83,67,68,84,82,,,,,,,,1.99,1.02,1.72*18
$GPGSV,3,1,12,01,48,140,38,02,18,143,27,03,75,052,41,04,64,180,40*7B
$GPGSV,3,2,12,06,26,308,27,09,27,212,39,17,40,254,38,19,38,283,36*75
$GPGSV,3,3,12,25,00,010,,28,,,27,31,,,32,49,32,185,36*75
$GLGSV,3,1,09,67,51,041,39,68,72,248,42,69,21,232,34,75,04,341,21*6C
$GLGSV,3,2,09,76,13,033,27,77,05,077,,82,34,160,42,83,78,248,41*6D
$GLGSV,3,3,09,84,31,322,29*5A
$GNGLL,5019.79772,N,00845.47364,E,054554.00,A,A*78
$GNRMC,054555.00,A,5019.79668,N,00845.47413,E,3.766,165.27,211025,,,A*75
$GNVTG,165.27,T,,M,3.766,N,6.974,K,A*2C
$GNGGA,054555.00,5019.79668,N,00845.47413,E,1,12,1.02,154.6,M,47.4,M,,*40
$GNGSA,A,3,03,01,04,17,06,19,09,,,,,,1.99,1.02,1.72*1D
$GNGSA,A,3,83,67,68,84,82,,,,,,,,1.99,1.02,1.72*18
$GPGSV,3,1,12,01,48,140,39,02,18,143,26,03,75,052,40,04,64,180,39*74
$GPGSV,3,2,12,06,26,308,28,09,27,212,41,17,40,254,38,19,38,283,38*7B
$GPGSV,3,3,12,25,00,010,,28,,,34,31,,,32,49,32,185,37*76
$GLGSV,3,1,09,67,51,041,39,68,72,248,42,69,21,232,38,75,04,340,21*61
$GLGSV,3,2,09,76,13,033,27,77,05,077,,82,34,160,42,83,78,248,42*6E
$GLGSV,3,3,09,84,31,322,33*51
$GNGLL,5019.79668,N,00845.47413,E,054555.00,A,A*74
$GNRMC,054556.00,A,5019.79564,N,00845.47467,E,3.700,165.03,211025,,,A*7C
$GNVTG,165.03,T,,M,3.700,N,6.852,K,A*2F
$GNGGA,054556.00,5019.79564,N,00845.47467,E,1,12,1.02,154.4,M,47.4,M,,*4D
$GNGSA,A,3,03,01,04,17,06,19,09,,,,,,1.99,1.02,1.72*1D
$GNGSA,A,3,83,67,68,84,82,,,,,,,,1.99,1.02,1.72*18
$GPGSV,3,1,12,01,48,140,31,02,18,143,26,03,75,052,41,04,64,180,38*7C
$GPGSV,3,2,12,06,26,308,32,09,27,212,36,17,40,254,36,19,38,283,39*7F
$GPGSV,3,3,12,25,00,010,,28,,,34,31,,,39,49,32,185,37*7D
$GLGSV,3,1,09,67,51,041,36,68,72,248,41,69,21,232,38,75,04,340,23*6F
$GLGSV,3,2,09,76,13,033,29,77,05,077,,82,34,160,42,83,78,248,40*62
$GLGSV,3,3,09,84,31,322,33*51
$GNGLL,5019.79564,N,00845.47467,E,054556.00,A,A*7B
$GNRMC,054557.00,A,5019.79460,N,00845.47496,E,3.392,164.32,211025,,,A*7A
$GNVTG,164.32,T,,M,3.392,N,6.282,K,A*24
$GNGGA,054557.00,5019.79460,N,00845.47496,E,1,12,1.02,154.4,M,47.4,M,,*47
$GNGSA,A,3,03,01,04,17,06,19,09,,,,,,1.99,1.02,1.72*1D
$GNGSA,A,3,83,67,68,84,82,,,,,,,,1.99,1.02,1.72*18
$GPGSV,3,1,12,01,48,140,31,02,18,143,33,03,75,052,39,04,64,180,38*77
$GPGSV,3,2,12,06,26,308,37,09,27,212,31,17,40,254,38,19,38,283,38*72
$GPGSV,3,3,12,25,00,010,,28,,,35,31,,,39,49,32,185,40*7C
$GLGSV,3,1,09,67,51,041,42,68,72,248,36,69,21,232,30,75,04,340,22*65
$GLGSV,3,2,09,76,13,033,30,77,06,076,,82,34,160,38,83,78,248,40*65
$GLGSV,3,3,09,84,31,322,33*51
$GNGLL,5019.79460,N,00845.47496,E,054557.00,A,A*71
$GNRMC,054558.00,A,5019.79358,N,00845.47549,E,3.929,162.79,211025,,,A*79
$GNVTG,162.79,T,,M,3.929,N,7.276,K,A*2D
$GNGGA,054558.00,5019.79358,N,00845.47549,E,1,12,1.02,154.3,M,47.4,M,,*40
$GNGSA,A,3,03,01,04,17,06,19,09,,,,,,1.99,1.02,1.72*1D
$GNGSA,A,3,83,67,68,84,82,,,,,,,,1.99,1.02,1.72*18
$GPGSV,3,1,12,01,48,140,36,02,18,143,34,03,75,052,42,04,64,180,41*75
$GPGSV,3,2,12,06,26,308,39,09,27,212,30,17,40,254,38,19,38,283,35*70
$GPGSV,3,3,12,25,00,010,,28,,,31,31,,,36,49,32,185,40*77
$GLGSV,3,1,09,67,51,041,40,68,72,248,38,69,21,232,31,75,04,340,22*68
$GLGSV,3,2,09,76,13,033,30,77,06,076,,82,34,160,40,83,78,248,37*6A
$GLGSV,3,3,09,84,31,322,37*55
$GNGLL,5019.79358,N,00845.47549,E,054558.00,A,A*71
$GNRMC,054559.00,A,5019.79258,N,00845.47616,E,3.710,160.64,211025,,,A*7A
$GNVTG,160.64,T,,M,3.710,N,6.871,K,A*2B
$GNGGA,054559.00,5019.79258,N,00845.47616,E,1,12,1.02,154.4,M,47.4,M,,*4E
$GNGSA,A,3,03,01,04,17,06,19,09,,,,,,1.99,1.02,1.72*1D
$GNGSA,A,3,83,67,68,84,82,,,,,,,,1.99,1.02,1.72*18
$GPGSV,3,1,12,01,48,140,36,02,18,143,33,03,75,052,41,04,64,180,35*72
$GPGSV,3,2,12,06,26,308,39,09,27,212,29,17,40,254,32,19,38,283,39*7E
$GPGSV,3,3,12,25,00,010,,28,,,36,31,,,30,49,32,185,42*74
$GLGSV,3,1,09,67,51,041,33,68,72,248,37,69,21,232,30,75,04,340,23*63
$GLGSV,3,2,09,76,13,033,35,77,06,076,,82,34,160,41,83,78,248,37*6E
$GLGSV,3,3,09,84,31,322,37*55
$GNGLL,5019.79258,N,00845.47616,E,054559.00,A,A*78
$GNRMC,054600.00,A,5019.79174,N,00845.47702,E,3.638,155.74,211025,,,A*70
$GNVTG,155.74,T,,M,3.638,N,6.737,K,A*2A
$GNGGA,054600.00,5019.79174,N,00845.47702,E,1,12,1.02,154.2,M,47.4,M,,*4E
$GNGSA,A,3,03,01,04,17,06,19,09,,,,,,1.99,1.02,1.72*1D
$GNGSA,A,3,83,67,68,84,82,,,,,,,,1.99,1.02,1.72*18
$GPGSV,3,1,12,01,48,140,42,02,18,143,34,03,75,052,35,04,64,180,38*78
$GPGSV,3,2,12,06,26,308,43,09,27,212,28,17,40,254,41,19,38,283,39*76
$GPGSV,3,3,12,25,00,010,,28,,,32,31,,,41,49,32,185,44*70
$GLGSV,3,1,09,67,51,041,33,68,72,248,36,69,21,232,33,75,04,340,21*63
$GLGSV,3,2,09,76,13,033,31,77,06,076,,82,34,160,42,83,78,248,41*68
$GLGSV,3,3,09,84,31,322,43*56
$GNGLL,5019.79174,N,00845.47702,E,054600.00,A,A*7E
$GNRMC,054601.00,A,5019.79079,N,00845.47752,E,3.729,153.82,211025,,,A*76
$GNVTG,153.82,T,,M,3.729,N,6.906,K,A*28
$GNGGA,054601.00,5019.79079,N,00845.47752,E,1,12,1.02,153.9,M,47.4,M,,*4A
$GNGSA,A,3,03,01,04,17,06,19,09,,,,,,1.99,1.02,1.72*1D
$GNGSA,A,3,83,67,68,84,82,,,,,,,,1.99,1.02,1.72*18
$GPGSV,3,1,12,01,48,140,39,02,18,143,38,03,75,052,39,04,64,180,33*7F
$GPGSV,3,2,12,06,26,308,41,09,27,212,32,17,40,254,36,19,38,283,39*7F
$GPGSV,3,3,12,25,00,010,,28,,,31,31,,,29,49,32,185,37*79
$GLGSV,3,1,09,67,51,041,36,68,72,248,28,69,21,232,26,75,04,340,22*6E
$GLGSV,3,2,09,76,13,033,35,77,06,076,,82,34,160,40,83,78,248,32*6A
$GLGSV,3,3,09,84,31,322,43*56
$GNGLL,5019.79079,N,00845.47752,E,054601.00,A,A*76
$GNRMC,054602.00,A,5019.78993,N,00845.47828,E,3.719,150.77,211025,,,A*71
$GNVTG,150.77,T,,M,3.719,N,6.888,K,A*25
$GNGGA,054602.00,5019.78993,N,00845.47828,E,1,12,1.02,154.0,M,47.4,M,,*49
$GNGSA,A,3,03,01,04,17,06,19,09,,,,,,1.99,1.02,1.72*1D
$GNGSA,A,3,83,67,68,84,82,,,,,,,,1.99,1.02,1.72*18
$GPGSV,3,1,12,01,48,140,42,02,18,143,35,03,75,052,33,04,64,180,37*70
$GPGSV,3,2,12,06,26,308,41,09,27,212,36,17,40,254,36,19,38,283,41*74
$GPGSV,3,3,12,25,00,010,,28,,,26,31,,,37,49,32,185,44*74
$GLGSV,3,1,09,67,51,041,32,68,72,248,36,69,21,232,26,75,04,340,23*64
$GLGSV,3,2,09,76,13,033,28,77,06,076,,82,33,161,35,83,78,248,38*68
$GLGSV,3,3,09,84,31,322,40*55
$GNGLL,5019.78993,N,00845.47828,E,054602.00,A,A*7B
$GNRMC,054603.00,A,5019.78906,N,00845.47908,E,3.332,147.19,211025,,,A*7C
$GNVTG,147.19,T,,M,3.332,N,6.171,K,A*29
$GNGGA,054603.00,5019.78906,N,00845.47908,E,1,12,1.02,154.1,M,47.4,M,,*46
$GNGSA,A,3,03,01,04,17,06,19,09,,,,,,1.99,1.02,1.72*1D
$GNGSA,A,3,83,67,68,84,82,,,,,,,,1.99,1.02,1.72*18
$GPGSV,3,1,12,01,48,140,43,02,18,143,37,03,75,052,39,04,64,180,38*76
$GPGSV,3,2,12,06,26,308,43,09,27,212,36,17,40,254,40,19,38,283,42*74
$GPGSV,3,3,12,25,00,010,,28,,,32,31,,,29,49,32,185,47*7D
$GLGSV,3,1,09,67,51,041,26,68,72,248,35,69,21,232,32,75,04,340,22*66
$GLGSV,3,2,09,76,13,033,27,77,06,076,,82,33,161,38,83,78,245,38*67
$GLGSV,3,3,09,84,31,322,35*57
$GNGLL,5019.78906,N,00845.47908,E,054603.00,A,A*75
$GNRMC,054604.00,A,5019.78824,N,00845.47992,E,3.464,148.24,211025,,,A*7C
$GNVTG,148.24,T,,M,3.464,N,6.415,K,A*2B
$GNGGA,054604.00,5019.78824,N,00845.47992,E,1,12,1.02,153.8,M,47.4,M,,*4D
$GNGSA,A,3,03,01,04,17,06,19,09,,,,,,1.99,1.02,1.72*1D
$GNGSA,A,3,83,67,68,84,82,,,,,,,,1.99,1.02,1.72*18
$GPGSV,3,1,12,01,48,140,42,02,18,143,32,03,75,052,30,04,64,180,39*7A
$GPGSV,3,2,12,06,26,308,40,09,27,212,36,17,40,254,40,19,38,283,38*7A
$GPGSV,3,3,12,25,00,010,20,28,,,31,31,,,30,49,32,185,41*72
$GLGSV,3,1,09,67,51,041,32,68,72,248,31,69,21,232,28,75,04,340,22*6C
$GLGSV,3,2,09,76,13,033,28,77,06,076,,82,33,161,40,83,78,245,39*66
$GLGSV,3,3,09,84,32,322,32*53
$GNGLL,5019.78824,N,00845.47992,E,054604.00,A,A*70
$GNRMC,054605.00,A,5019.78742,N,00845.48068,E,3.272,147.29,211025,,,A*72
$GNVTG,147.29,T,,M,3.272,N,6.060,K,A*2E
$GNGGA,054605.00,5019.78742,N,00845.48068,E,1,12,1.02,153.2,M,47.4,M,,*4A
$GNGSA,A,3,03,01,04,17,06,19,09,,,,,,1.99,1.02,1.72*1D
$GNGSA,A,3,83,67,68,84,82,,,,,,,,1.99,1.02,1.72*18
$GPGSV,3,1,12,01,48,140,44,02,18,143,32,03,75,052,31,04,64,180,40*73
$GPGSV,3,2,12,06,26,308,38,09,27,212,33,17,40,254,42,19,38,283,36*7C
$GPGSV,3,3,12,25,00,010,,28,,,27,31,,,31,49,32,185,41*76
$GLGSV,3,1,09,67,51,041,36,68,72,248,39,69,21,232,29,75,04,340,21*62
$GLGSV,3,2,09,76,13,033,27,77,06,076,,82,33,161,41,83,78,245,40*66
$GLGSV,3,3,09,84,32,322,33*52
$GNGLL,5019.78742,N,00845.48068,E,054605.00,A,A*7D
$GNRMC,054606.00,A,5019.78649,N,00845.48131,E,3.494,149.26,211025,,,A*79
$GNVTG,149.26,T,,M,3.494,N,6.471,K,A*25
$GNGGA,054606.00,5019.78649,N,00845.48131,E,1,12,1.02,153.1,M,47.4,M,,*4D
$GNGSA,A,3,03,01,04,17,06,19,09,,,,,,1.99,1.02,1.72*1D
$GNGSA,A,3,83,67,68,84,82,,,,,,,,1.99,1.02,1.72*18
$GPGSV,3,1,12,01,48,140,44,02,18,143,27,03,75,052,43,04,64,180,38*7D
$GPGSV,3,2,12,06,26,308,39,09,27,212,36,17,40,254,40,19,38,283,33*7F
$GPGSV,3,3,12,25,00,010,,28,,,29,31,,,38,49,32,185,43*73
$GLGSV,3,1,09,67,51,041,40,68,72,248,41,69,21,232,29,75,04,340,20*6D
$GLGSV,3,2,09,76,13,033,28,77,06,076,,82,33,161,40,83,78,245,44*6C
$GLGSV,3,3,09,84,32,322,28*58
$GNGLL,5019.78649,N,00845.48131,E,054606.00,A,A*79
$GNRMC,054607.00,A,5019.78569,N,00845.48209,E,3.512,146.54,211025,,,A*74
$GNVTG,146.54,T,,M,3.512,N,6.504,K,A*23
$GNGGA,054607.00,5019.78569,N,00845.48209,E,1,12,1.08,153.7,M,47.4,M,,*49
$GNGSA,A,3,03,01,04,17,06,19,09,,,,,,2.10,1.08,1.80*18
$GNGSA,A,3,83,67,68,84,82,,,,,,,,2.10,1.08,1.80*1D
$GPGSV,3,1,12,01,48,140,44,02,18,143,28,03,75,052,42,04,64,180,41*7D
$GPGSV,3,2,12,06,26,308,39,09,27,212,38,17,40,254,39,19,38,283,37*7B
$GPGSV,3,3,12,25,00,010,,28,,,33,31,,,38,49,32,185,43*78
$GLGSV,3,1,09,67,51,041,39,68,72,248,38,69,21,232,28,75,04,340,21*6D
$GLGSV,3,2,09,76,13,033,28,77,06,076,,82,33,161,40,83,78,245,41*69
$GLGSV,3,3,09,84,32,322,36*57
$GNGLL,5019.78569,N,00845.48209,E,054607.00,A,A*71
$GNRMC,054608.00,A,5019.78491,N,00845.48298,E,3.531,142.61,211025,,,A*76
$GNVTG,142.61,T,,M,3.531,N,6.539,K,A*2E
$GNGGA,054608.00,5019.78491,N,00845.48298,E,1,12,1.02,154.0,M,47.4,M,,*42
$GNGSA,A,3,03,01,04,17,06,19,09,,,,,,1.99,1.02,1.72*1D
$GNGSA,A,3,83,67,68,84,82,,,,,,,,1.99,1.02,1.72*18
$GPGSV,3,1,12,01,48,140,45,02,18,143,27,03,75,052,43,04,64,180,40*73
$GPGSV,3,2,12,06,26,308,37,09,27,212,38,17,40,254,39,19,38,283,37*75
$GPGSV,3,3,12,25,00,010,,28,,,29,31,,,33,49,32,185,41*7A
$GLGSV,3,1,09,67,51,041,41,68,72,248,40,69,21,232,21,75,04,340,23*66
$GLGSV,3,2,09,76,13,033,33,77,06,076,,82,33,161,42,83,78,245,38*6F
$GLGSV,3,3,09,84,32,322,37*56
$GNGLL,5019.78491,N,00845.48298,E,054608.00,A,A*70
$GNRMC,054609.00,A,5019.78432,N,00845.48412,E,3.334,133.29,211025,,,A*73
$GNVTG,133.29,T,,M,3.334,N,6.175,K,A*2B
$GNGGA,054609.00,5019.78432,N,00845.48412,E,1,12,1.02,154.1,M,47.4,M,,*4F
$GNGSA,A,3,03,01,04,17,06,19,09,,,,,,1.99,1.02,1.72*1D
$GNGSA,A,3,83,67,68,84,82,,,,,,,,1.99,1.02,1.72*18
$GPGSV,3,1,12,01,47,140,43,02,18,143,27,03,75,052,44,04,64,180,38*72
$GPGSV,3,2,12,06,26,308,35,09,27,212,38,17,40,254,38,19,38,283,37*76
$GPGSV,3,3,12,25,00,010,,28,,,30,31,,,36,49,32,185,34*75
$GLGSV,3,1,09,67,51,041,42,68,72,248,40,69,21,232,23,75,04,340,22*66
$GLGSV,3,2,09,76,13,033,30,77,06,076,,82,33,161,43,83,78,245,41*63
$GLGSV,3,3,09,84,32,322,37*56
$GNGLL,5019.78432,N,00845.48412,E,054609.00,A,A*7C
$GNRMC,054610.00,A,5019.78379,N,00845.48526,E,3.116,126.27,211025,,,A*7D
$GNVTG,126.27,T,,M,3.116,N,5.771,K,A*22
$GNGGA,054610.00,5019.78379,N,00845.48526,E,1,12,1.02,154.0,M,47.4,M,,*48
$GNGSA,A,3,03,01,04,17,06,19,09,,,,,,1.99,1.02,1.72*1D
$GNGSA,A,3,83,67,68,84,82,,,,,,,,1.99,1.02,1.72*18
$GPGSV,3,1,12,01,47,140,43,02,18,143,26,03,75,052,45,04,64,180,41*7C
$GPGSV,3,2,12,06,26,308,37,09,27,212,40,17,40,254,38,19,38,283,39*75
$GPGSV,3,3,12,25,00,010,,28,,,29,31,,,38,49,32,185,39*7E
$GLGSV,3,1,09,67,51,041,41,68,72,248,40,69,21,232,30,75,04,340,23*66
$GLGSV,3,2,09,76,13,033,30,77,06,076,,82,33,161,42,83,78,245,42*61
$GLGSV,3,3,09,84,32,322,37*56
$GNGLL,5019.78379,N,00845.48526,E,054610.00,A,A*7A
$GNRMC,054611.00,A,5019.78325,N,00845.48642,E,3.582,123.75,211025,,,A*7F
$GNVTG,123.75,T,,M,3.582,N,6.633,K,A*2D
$GNGGA,054611.00,5019.78325,N,00845.48642,E,1,12,1.02,154.3,M,47.4,M,,*42
$GNGSA,A,3,03,01,04,17,06,19,09,,,,,,1.99,1.02,1.72*1D
$GNGSA,A,3,83,67,68,84,82,,,,,,,,1.99,1.02,1.72*18
$GPGSV,3,1,12,01,47,140,44,02,18,143,24,03,74,053,45,04,64,180,40*78
$GPGSV,3,2,12,06,26,308,37,09,27,212,40,17,40,254,39,19,38,283,33*7E
$GPGSV,3,3,12,25,00,010,,28,,,28,31,,,40,49,32,185,35*7C
$GLGSV,3,1,09,67,51,041,43,68,72,248,40,69,21,232,30,75,04,340,22*65
$GLGSV,3,2,09,76,13,033,34,77,06,076,22,82,33,161,33,83,78,245,41*60
$GLGSV,3,3,09,84,32,322,37*56
$GNGLL,5019.78325,N,00845.48642,E,054611.00,A,A*73
$GNRMC,054612.00,A,5019.78287,N,00845.48781,E,3.531,117.94,211025,,,A*7B
$GNVTG,117.94,T,,M,3.531,N,6.539,K,A*24
$GNGGA,054612.00,5019.78287,N,00845.48781,E,1,12,1.02,154.3,M,47.4,M,,*46
$GNGSA,A,3,03,01,04,17,06,19,09,,,,,,1.99,1.02,1.72*1D
$GNGSA,A,3,83,67,68,84,82,,,,,,,,1.99,1.02,1.72*18
$GPGSV,3,1,12,01,47,140,40,02,18,143,25,03,74,053,42,04,64,179,37*7C
$GPGSV,3,2,12,06,26,308,36,09,27,212,37,17,40,254,37,19,38,283,34*76
$GPGSV,3,3,12,25,00,010,,28,,,30,31,,,38,49,32,185,32*7D
$GLGSV,3,1,09,67,51,041,39,68,72,248,39,69,21,232,26,75,04,340,24*67
$GLGSV,3,2,09,76,13,033,28,77,06,076,22,82,33,161,29,83,78,245,39*69
$GLGSV,3,3,09,84,32,322,34*55
$GNGLL,5019.78287,N,00845.48781,E,054612.00,A,A*77
$GNRMC,054613.00,A,5019.78277,N,00845.48926,E,3.451,105.35,211025,,,A*79
$GNVTG,105.35,T,,M,3.451,N,6.391,K,A*2F
$GNGGA,054613.00,5019.78277,N,00845.48926,E,1,12,1.02,154.3,M,47.4,M,,*4B
$GNGSA,A,3,03,01,04,17,06,19,09,,,,,,1.99,1.02,1.72*1D
$GNGSA,A,3,83,67,68,84,82,,,,,,,,1.99,1.02,1.72*18
$GPGSV,3,1,12,01,47,140,33,02,18,143,24,03,74,053,42,04,64,179,39*77
$GPGSV,3,2,12,06,27,308,32,09,27,212,31,17,40,254,38,19,38,283,38*76
$GPGSV,3,3,12,25,00,010,22,28,,,32,31,,,45,49,32,185,30*77
$GLGSV,3,1,09,67,51,041,43,68,72,248,46,69,21,232,27,75,04,340,24*63
$GLGSV,3,2,09,76,13,033,29,77,06,076,19,82,33,161,26,83,78,245,44*65
$GLGSV,3,3,09,84,32,322,37*56
$GNGLL,5019.78277,N,00845.48926,E,054613.00,A,A*7A
$GNRMC,054614.00,A,5019.78302,N,00845.49062,E,3.298,93.39,211025,,,A*44
$GNVTG,93.39,T,,M,3.298,N,6.108,K,A*1C
$GNGGA,054614.00,5019.78302,N,00845.49062,E,1,12,1.02,154.3,M,47.4,M,,*47
$GNGSA,A,3,03,01,04,17,06,19,09,,,,,,1.99,1.02,1.72*1D
$GNGSA,A,3,83,67,68,84,82,,,,,,,,1.99,1.02,1.72*18
$GPGSV,3,1,12,01,47,140,25,02,18,143,21,03,74,053,42,04,64,179,39*75
$GPGSV,3,2,12,06,27,308,32,09,28,212,30,17,40,254,35,19,38,283,27*7B
$GPGSV,3,3,12,25,00,010,19,28,,,36,31,,,41,49,32,185,*7C
$GLGSV,3,1,09,67,51,041,41,68,72,248,42,69,21,232,33,75,04,340,23*67
$GLGSV,3,2,09,76,13,033,29,77,06,076,20,82,33,161,23,83,78,245,41*6F
$GLGSV,3,3,09,84,32,322,35*54
$GNGLL,5019.78302,N,00845.49062,E,054614.00,A,A*76
$GNRMC,054615.00,A,5019.78341,N,00845.49178,E,3.208,65.94,211025,,,A*4F
$GNVTG,65.94,T,,M,3.208,N,5.941,K,A*1D
$GNGGA,054615.00,5019.78341,N,00845.49178,E,1,12,1.02,154.1,M,47.4,M,,*49
$GNGSA,A,3,03,01,04,17,06,19,09,,,,,,1.99,1.02,1.72*1D
$GNGSA,A,3,83,67,68,84,82,,,,,,,,1.99,1.02,1.72*18
$GPGSV,3,1,12,01,47,140,24,02,18,143,23,03,74,053,47,04,64,179,47*7A
$GPGSV,3,2,12,06,27,308,30,09,28,212,27,17,39,253,42,19,38,283,32*72
$GPGSV,3,3,12,25,00,010,24,28,,,46,31,,,42,49,32,185,*76
$GLGSV,3,1,09,67,51,041,41,68,72,248,42,69,21,232,36,75,04,340,25*64
$GLGSV,3,2,09,76,13,033,30,77,06,076,19,82,33,161,22,83,78,245,41*6C
$GLGSV,3,3,09,84,32,322,41*57
$GNGLL,5019.78341,N,00845.49178,E,054615.00,A,A*7A
$GNRMC,054616.00,A,5019.78382,N,00845.49297,E,3.268,63.07,211025,,,A*4B
$GNVTG,63.07,T,,M,3.268,N,6.052,K,A*1F
$GNGGA,054616.00,5019.78382,N,00845.49297,E,1,12,1.02,154.0,M,47.4,M,,*46
$GNGSA,A,3,03,01,04,17,06,19,09,,,,,,1.99,1.02,1.72*1D
$GNGSA,A,3,83,67,68,84,82,,,,,,,,1.99,1.02,1.72*18
$GPGSV,3,1,12,01,47,140,23,02,18,143,24,03,74,053,42,04,64,179,41*79
$GPGSV,3,2,12,06,27,308,35,09,28,212,26,17,39,253,37,19,38,283,32*74
$GPGSV,3,3,12,25,00,010,,28,,,39,31,,,34,49,32,185,*79
$GLGSV,3,1,09,67,51,041,42,68,72,248,42,69,21,232,39,75,04,340,28*65
$GLGSV,3,2,09,76,13,033,30,77,06,076,17,82,33,161,21,83,78,245,41*61
$GLGSV,3,3,09,84,32,322,37*56
$GNGLL,5019.78382,N,00845.49297,E,054616.00,A,A*74
$GNRMC,054617.00,A,5019.78427,N,00845.49432,E,3.411,59.47,211025,,,A*4E
$GNVTG,59.47,T,,M,3.411,N,6.317,K,A*18
$GNGGA,054617.00,5019.78427,N,00845.49432,E,1,12,1.02,154.1,M,47.4,M,,*47
$GNGSA,A,3,03,01,04,17,06,19,09,,,,,,1.99,1.02,1.72*1D
$GNGSA,A,3,83,67,68,84,82,,,,,,,,1.99,1.02,1.72*18
$GPGSV,3,1,12,01,47,140,22,02,18,143,23,03,74,053,44,04,64,179,43*7B
$GPGSV,3,2,12,06,27,308,31,09,28,212,25,17,39,253,38,19,38,283,41*78
$GPGSV,3,3,12,25,00,010,,28,,,43,31,,,36,49,32,185,*76
$GLGSV,3,1,09,67,51,041,40,68,72,248,41,69,21,232,39,75,04,340,26*6A
$GLGSV,3,2,09,76,13,033,31,77,06,076,17,82,33,161,23,83,78,245,43*60
$GLGSV,3,3,09,84,32,322,37*56
$GNGLL,5019.78427,N,00845.49432,E,054617.00,A,A*74
$GNRMC,054618.00,A,5019.78468,N,00845.49564,E,3.494,59.76,211025,,,A*47
$GNVTG,59.76,T,,M,3.494,N,6.471,K,A*10
$GNGGA,054618.00,5019.78468,N,00845.49564,E,1,12,1.02,154.0,M,47.4,M,,*40
$GNGSA,A,3,03,01,04,17,06,19,09,,,,,,1.99,1.02,1.72*1D
$GNGSA,A,3,83,67,68,84,82,,,,,,,,1.99,1.02,1.72*18
$GPGSV,3,1,12,01,47,140,22,02,18,143,,03,74,053,45,04,64,179,44*7C
$GPGSV,3,2,12,06,27,308,31,09,28,212,23,17,39,253,34,19,38,283,42*71
$GPGSV,3,3,12,25,00,010,,28,,,43,31,,,31,49,32,185,*71
$GLGSV,3,1,09,67,51,041,42,68,72,248,40,69,21,232,37,75,04,340,25*64
$GLGSV,3,2,09,76,13,033,31,77,06,076,17,82,33,161,22,83,78,245,43*61
$GLGSV,3,3,09,84,32,322,36*57
$GNGLL,5019.78468,N,00845.49564,E,054618.00,A,A*72
$GNRMC,054619.00,A,5019.78502,N,00845.49699,E,3.155,62.89,211025,,,A*4A
$GNVTG,62.89,T,,M,3.155,N,5.844,K,A*19
$GNGGA,054619.00,5019.78502,N,00845.49699,E,1,12,1.01,154.0,M,47.4,M,,*4E
$GNGSA,A,3,03,01,04,17,06,19,09,,,,,,1.99,1.01,1.72*1E
$GNGSA,A,3,83,67,68,84,82,,,,,,,,1.99,1.01,1.72*1B
$GPGSV,3,1,12,01,47,140,22,02,18,143,24,03,74,053,41,04,64,179,39*74
$GPGSV,3,2,12,06,27,308,31,09,28,212,21,17,39,253,35,19,38,283,32*75
$GPGSV,3,3,12,25,00,010,,28,,,41,31,,,32,49,32,185,*70
$GLGSV,3,1,09,67,51,041,37,68,72,248,40,69,21,232,38,75,04,340,25*69
$GLGSV,3,2,09,76,13,033,32,77,06,076,17,82,33,161,22,83,78,245,42*63
$GLGSV,3,3,09,84,32,322,39*58
$GNGLL,5019.78502,N,00845.49699,E,054619.00,A,A*7F
$GNRMC,054620.00,A,5019.78539,N,00845.49831,E,3.436,60.73,211025,,,A*43
$GNVTG,60.73,T,,M,3.436,N,6.364,K,A*14
$GNGGA,054620.00,5019.78539,N,00845.49831,E,1,12,1.01,153.9,M,47.4,M,,*4E
$GNGSA,A,3,03,01,04,17,06,19,09,,,,,,1.99,1.01,1.72*1E
$GNGSA,A,3,83,67,68,84,82,,,,,,,,1.99,1.01,1.72*1B
$GPGSV,3,1,12,01,47,140,22,02,18,143,23,03,74,053,41,04,64,179,38*72
$GPGSV,3,2,12,06,27,308,31,09,28,212,21,17,39,253,34,19,38,283,32*74
$GPGSV,3,3,12,25,00,010,,28,,,36,31,,,32,49,32,185,*70
$GLGSV,3,1,09,67,51,041,44,68,72,248,41,69,21,232,35,75,04,340,23*67
$GLGSV,3,2,09,76,13,033,27,77,06,076,17,82,33,161,21,83,78,245,40*66
$GLGSV,3,3,09,84,32,322,31*50
$GNGLL,5019.78539,N,00845.49831,E,054620.00,A,A*71
$GNRMC,054621.00,A,5019.78573,N,00845.49981,E,3.530,53.29,211025,,,A*4E
$GNVTG,53.29,T,,M,3.530,N,6.537,K,A*1C
$GNGGA,054621.00,5019.78573,N,00845.49981,E,1,12,1.01,153.9,M,47.4,M,,*4B
$GNGSA,A,3,03,01,04,17,06,19,09,,,,,,1.99,1.01,1.72*1E
$GNGSA,A,3,83,67,68,84,82,,,,,,,,1.99,1.01,1.72*1B
$GPGSV,3,1,12,01,47,140,21,02,18,143,21,03,74,053,46,04,64,179,41*7A
$GPGSV,3,2,12,06,27,308,38,09,28,212,21,17,39,253,34,19,38,283,41*79
$GPGSV,3,3,12,25,00,009,,28,,,40,31,,,25,49,32,185,*7F
$GLGSV,3,1,09,67,51,041,41,68,72,248,38,69,21,232,39,75,04,340,21*62
$GLGSV,3,2,09,76,13,033,30,77,06,076,12,82,33,161,25,83,78,245,41*60
$GLGSV,3,3,09,84,32,322,34*55
$GNGLL,5019.78573,N,00845.49981,E,054621.00,A,A*74
$GNRMC,054622.00,A,5019.78624,N,00845.50088,E,3.086,52.42,211025,,,A*40
$GNVTG,52.42,T,,M,3.086,N,5.716,K,A*1A
$GNGGA,054622.00,5019.78624,N,00845.50088,E,1,12,1.05,154.3,M,47.4,M,,*48
$GNGSA,A,3,03,01,04,17,06,19,09,,,,,,2.13,1.05,1.85*13
$GNGSA,A,3,83,67,68,84,82,,,,,,,,2.13,1.05,1.85*16
$GPGSV,3,1,12,01,47,140,21,02,18,143,23,03,74,053,45,04,64,179,39*74
$GPGSV,3,2,12,06,27,308,34,09,28,212,22,17,39,253,32,19,38,283,32*74
$GPGSV,3,3,12,25,00,009,,28,,,41,31,,,32,49,32,185,*78
$GLGSV,3,1,09,67,51,041,39,68,72,248,36,69,21,232,37,75,04,340,20*6C
$GLGSV,3,2,09,76,13,033,31,77,06,076,09,82,33,161,20,83,78,245,41*6E
$GLGSV,3,3,09,84,32,322,35*54
$GNGLL,5019.78624,N,00845.50088,E,054622.00,A,A*7E
$GNRMC,054623.00,A,5019.78665,N,00845.50219,E,3.229,54.44,211025,,,A*49
$GNVTG,54.44,T,,M,3.229,N,5.980,K,A*1C
$GNGGA,054623.00,5019.78665,N,00845.50219,E,1,12,1.01,154.7,M,47.4,M,,*46
$GNGSA,A,3,03,01,04,17,06,19,09,,,,,,1.99,1.01,1.72*1E
$GNGSA,A,3,83,67,68,84,82,,,,,,,,1.99,1.01,1.72*1B
$GPGSV,3,1,12,01,47,140,21,02,18,143,31,03,74,053,45,04,64,179,38*76
$GPGSV,3,2,12,06,27,308,36,09,28,212,22,17,39,253,38,19,38,283,41*78
$GPGSV,3,3,12,25,00,009,,28,,,40,31,,,32,49,32,185,*79
$GLGSV,3,1,09,67,51,041,39,68,72,248,38,69,21,232,37,75,04,340,20*62
$GLGSV,3,2,09,76,13,033,30,77,06,076,08,82,33,161,18,83,78,245,38*6B
$GLGSV,3,3,09,84,32,322,35*54
$GNGLL,5019.78665,N,00845.50219,E,054623.00,A,A*70
$GNRMC,054624.00,A,5019.78711,N,00845.50365,E,3.377,57.57,211025,,,A*4D
$GNVTG,57.57,T,,M,3.377,N,6.254,K,A*16
$GNGGA,054624.00,5019.78711,N,00845.50365,E,1,12,1.01,155.3,M,47.4,M,,*4C
$GNGSA,A,3,03,01,04,17,06,19,09,,,,,,1.99,1.01,1.72*1E
$GNGSA,A,3,83,67,68,84,82,,,,,,,,1.99,1.01,1.72*1B
$GPGSV,3,1,12,01,47,140,22,02,18,143,24,03,74,053,44,04,64,179,39*71
$GPGSV,3,2,12,06,27,308,30,09,28,212,23,17,39,253,40,19,38,283,39*7F
$GPGSV,3,3,12,25,00,009,,28,,,39,31,,,26,49,32,185,*72
$GLGSV,3,1,09,67,51,041,43,68,72,248,38,69,21,232,37,75,04,340,21*6E
$GLGSV,3,2,09,76,13,033,25,77,06,076,08,82,33,161,20,83,78,245,42*69
$GLGSV,3,3,09,84,32,322,37*56
$GNGLL,5019.78711,N,00845.50365,E,054624.00,A,A*7F
$GNRMC,054625.00,A,5019.78749,N,00845.50509,E,3.347,60.77,211025,,,A*48
$GNVTG,60.77,T,,M,3.347,N,6.199,K,A*11
$GNGGA,054625.00,5019.78749,N,00845.50509,E,1,12,1.01,155.1,M,47.4,M,,*4E
$GNGSA,A,3,03,01,04,17,06,19,09,,,,,,1.99,1.01,1.72*1E
$GNGSA,A,3,83,67,68,84,82,,,,,,,,1.99,1.01,1.72*1B
$GPGSV,3,1,12,01,47,140,25,02,18,143,24,03,74,053,43,04,64,179,37*7F
$GPGSV,3,2,12,06,27,308,33,09,28,212,22,17,39,253,38,19,38,283,41*7D
$GPGSV,3,3,12,25,00,009,,28,,,40,31,,,31,49,32,185,*7A
$GLGSV,3,1,09,67,51,041,43,68,72,248,42,69,21,232,39,75,04,340,24*68
$GLGSV,3,2,09,76,13,033,26,77,06,076,09,82,33,161,21,83,78,245,43*6B
$GLGSV,3,3,09,84,32,322,42*54
$GNGLL,5019.78749,N,00845.50509,E,054625.00,A,A*7F
$GNRMC,054626.00,A,5019.78791,N,00845.50645,E,3.359,59.97,211025,,,A*4E
$GNVTG,59.97,T,,M,3.359,N,6.221,K,A*1A
$GNGGA,054626.00,5019.78791,N,00845.50645,E,1,12,1.01,155.0,M,47.4,M,,*42
$GNGSA,A,3,03,01,04,17,06,19,09,,,,,,1.99,1.01,1.72*1E
$GNGSA,A,3,83,67,68,84,82,,,,,,,,1.99,1.01,1.72*1B
$GPGSV,3,1,12,01,47,140,24,02,18,143,30,03,74,053,42,04,64,179,38*75
$GPGSV,3,2,12,06,27,308,36,09,28,212,22,17,39,253,40,19,38,283,39*78
$GPGSV,3,3,12,25,00,009,,28,,,40,31,,,35,49,32,185,*7E
$GLGSV,3,1,09,67,51,041,44,68,72,248,41,69,21,232,39,75,04,340,25*6D
$GLGSV,3,2,09,76,13,033,32,77,06,076,12,82,33,161,25,83,78,245,43*60
$GLGSV,3,3,09,84,32,322,38*59
$GNGLL,5019.78791,N,00845.50645,E,054626.00,A,A*72
$GNRMC,054627.00,A,5019.78840,N,00845.50773,E,3.433,60.16,211025,,,A*40
$GNVTG,60.16,T,,M,3.433,N,6.357,K,A*12
$GNGGA,054627.00,5019.78840,N,00845.50773,E,1,12,1.12,155.1,M,47.4,M,,*47
$GNGSA,A,3,03,01,04,17,06,19,09,,,,,,2.26,1.12,1.96*11
$GNGSA,A,3,83,67,68,84,82,,,,,,,,2.26,1.12,1.96*14
$GPGSV,3,1,12,01,47,140,23,02,18,143,23,03,74,053,42,04,64,179,36*7E
$GPGSV,3,2,12,06,27,308,32,09,28,212,22,17,39,253,37,19,38,283,32*77
$GPGSV,3,3,12,25,00,009,,28,,,38,31,,,34,49,32,185,*70
$GLGSV,3,1,09,67,51,041,42,68,72,248,41,69,21,232,34,75,04,340,23*60
$GLGSV,3,2,09,76,13,033,26,77,06,076,13,82,33,161,26,83,78,245,43*67
$GLGSV,3,3,09,84,32,322,34*55
$GNGLL,5019.78840,N,00845.50773,E,054627.00,A,A*74
$GNRMC,054628.00,A,5019.78894,N,00845.50903,E,3.452,58.15,211025,,,A*40
$GNVTG,58.15,T,,M,3.452,N,6.394,K,A*12
$GNGGA,054628.00,5019.78894,N,00845.50903,E,1,12,1.12,155.1,M,47.4,M,,*48
$GNGSA,A,3,03,01,04,17,06,19,09,,,,,,2.26,1.12,1.96*11
$GNGSA,A,3,83,67,68,84,82,,,,,,,,2.26,1.12,1.96*14
$GPGSV,3,1,12,01,47,140,21,02,18,143,23,03,74,053,42,04,64,179,34*7E
$GPGSV,3,2,12,06,27,308,32,09,28,212,21,17,39,253,37,19,38,283,37*71
$GPGSV,3,3,12,25,00,009,,28,,,39,31,,,31,49,32,185,*74
$GLGSV,3,1,09,67,51,041,42,68,72,248,39,69,21,232,34,75,04,340,23*6F
$GLGSV,3,2,09,76,13,033,25,77,06,076,13,82,33,161,25,83,78,245,41*65
$GLGSV,3,3,09,84,32,322,34*55
$GNGLL,5019.78894,N,00845.50903,E,054628.00,A,A*7B
$GNRMC,054629.00,A,5019.78937,N,00845.51055,E,3.613,63.99,211025,,,A*49
$GNVTG,63.99,T,,M,3.613,N,6.692,K,A*1A
$GNGGA,054629.00,5019.78937,N,00845.51055,E,1,12,1.36,155.1,M,47.4,M,,*4C
$GNGSA,A,3,03,01,04,17,06,19,09,,,,,,2.60,1.36,2.21*1A
$GNGSA,A,3,83,67,68,84,82,,,,,,,,2.60,1.36,2.21*1F
$GPGSV,3,1,12,01,47,140,22,02,18,143,22,03,74,053,44,04,64,179,37*79
$GPGSV,3,2,12,06,27,308,35,09,28,212,20,17,39,253,41,19,38,283,43*75
$GPGSV,3,3,12,25,00,009,,28,,,44,31,,,30,49,32,185,*7F
$GLGSV,3,1,09,67,51,041,38,68,72,248,40,69,21,232,37,75,04,340,21*6D
$GLGSV,3,2,09,76,13,033,26,77,06,076,12,82,33,161,23,83,78,245,41*61
$GLGSV,3,3,09,84,32,322,40*56
$GNGLL,5019.78937,N,00845.51055,E,054629.00,A,A*79
$GNRMC,054630.00,A,5019.78973,N,00845.51203,E,3.334,63.35,211025,,,A*46
$GNVTG,63.35,T,,M,3.334,N,6.175,K,A*12
$GNGGA,054630.00,5019.78973,N,00845.51203,E,1,12,1.36,155.4,M,47.4,M,,*40
$GNGSA,A,3,03,01,04,17,06,19,09,,,,,,2.60,1.36,2.21*1A
$GNGSA,A,3,83,67,68,84,82,,,,,,,,2.60,1.36,2.21*1F
$GPGSV,3,1,12,01,47,140,21,02,18,143,21,03,74,053,42,04,64,179,35*7D
$GPGSV,3,2,12,06,27,308,38,09,28,212,19,17,39,253,38,19,38,283,41*7E
$GPGSV,3,3,12,25,00,009,,28,,,39,31,,,40,49,32,185,*72
$GLGSV,3,1,09,67,51,041,40,68,72,248,38,69,21,232,33,75,04,340,21*69
$GLGSV,3,2,09,76,13,033,25,77,06,076,12,82,33,161,22,83,78,245,40*62
$GLGSV,3,3,09,84,32,322,26*56
$GNGLL,5019.78973,N,00845.51203,E,054630.00,A,A*70
$GNRMC,054631.00,A,5019.79001,N,00845.51355,E,3.363,66.66,211025,,,A*49
$GNVTG,66.66,T,,M,3.363,N,6.228,K,A*18
$GNGGA,054631.00,5019.79001,N,00845.51355,E,1,12,1.36,155.4,M,47.4,M,,*4E
$GNGSA,A,3,03,01,04,17,06,19,09,,,,,,2.60,1.36,2.21*1A
$GNGSA,A,3,83,67,68,84,82,,,,,,,,2.60,1.36,2.21*1F
$GPGSV,3,1,12,01,47,140,21,02,18,143,,03,74,053,40,04,64,179,29*71
$GPGSV,3,2,12,06,27,308,33,09,28,212,21,17,39,253,39,19,38,283,40*7E
$GPGSV,3,3,12,25,00,009,,28,,,42,31,,,43,49,32,185,*7D
$GLGSV,3,1,09,67,51,041,38,68,72,248,38,69,21,232,33,75,04,340,19*6D
$GLGSV,3,2,09,76,13,033,25,77,06,076,,82,33,161,23,83,78,245,39*6E
$GLGSV,3,3,09,84,32,322,35*54
$GNGLL,5019.79001,N,00845.51355,E,054631.00,A,A*7E
$GNRMC,054632.00,A,5019.79039,N,00845.51484,E,3.385,66.33,211025,,,A*42
$GNVTG,66.33,T,,M,3.385,N,6.269,K,A*15
$GNGGA,054632.00,5019.79039,N,00845.51484,E,1,12,1.36,155.6,M,47.4,M,,*4F
$GNGSA,A,3,03,01,04,17,06,19,09,,,,,,2.60,1.36,2.22*19
$GNGSA,A,3,83,67,68,84,82,,,,,,,,2.60,1.36,2.22*1C
$GPGSV,3,1,12,01,47,140,22,02,18,143,,03,74,053,44,04,64,179,33*7D
$GPGSV,3,2,12,06,27,308,30,09,28,212,22,17,39,253,44,19,38,283,39*7A
$GPGSV,3,3,12,25,00,009,,28,,,44,31,,,47,49,32,185,*7F
$GLGSV,3,1,09,67,51,041,40,68,72,248,36,69,21,232,35,75,04,340,18*6B
$GLGSV,3,2,09,76,13,033,24,77,06,076,,82,33,161,22,83,78,245,31*66
$GLGSV,3,3,09,84,32,322,32*53
$GNGLL,5019.79039,N,00845.51484,E,054632.00,A,A*7D
$GNRMC,054633.00,A,5019.79075,N,00845.51618,E,3.639,68.20,211025,,,A*42
$GNVTG,68.20,T,,M,3.639,N,6.739,K,A*1B
$GNGGA,054633.00,5019.79075,N,00845.51618,E,1,12,1.36,155.6,M,47.4,M,,*41
$GNGSA,A,3,03,01,04,17,06,19,09,,,,,,2.60,1.36,2.22*19
$GNGSA,A,3,83,67,68,84,82,,,,,,,,2.60,1.36,2.22*1C
$GPGSV,3,1,12,01,47,140,26,02,18,143,26,03,74,053,40,04,64,179,28*73
$GPGSV,3,2,12,06,27,308,34,09,28,212,24,17,39,253,38,19,38,283,33*79
$GPGSV,3,3,12,25,00,009,,28,,,38,31,,,44,49,32,185,*77
$GLGSV,3,1,09,67,51,041,42,68,72,248,35,69,21,232,33,75,04,340,23*64
$GLGSV,3,2,09,76,13,033,26,77,06,076,,82,33,161,24,83,78,245,42*66
$GLGSV,3,3,09,84,32,322,36*57
$GNGLL,5019.79075,N,00845.51618,E,054633.00,A,A*73
$GNRMC,054634.00,A,5019.79171,N,00845.51674,E,3.502,64.34,211025,,,A*48
$GNVTG,64.34,T,,M,3.502,N,6.486,K,A*1E
$GNGGA,054634.00,5019.79171,N,00845.51674,E,1,11,1.14,158.0,M,47.4,M,,*41
$GNGSA,A,3,03,01,17,06,19,09,,,,,,,2.31,1.14,2.01*18
$GNGSA,A,3,83,67,68,84,82,,,,,,,,2.31,1.14,2.01*19
$GPGSV,3,1,12,01,47,140,44,02,18,143,37,03,74,053,44,04,64,179,27*7C
$GPGSV,3,2,12,06,27,308,29,09,28,212,22,17,39,253,35,19,38,283,33*7E
$GPGSV,3,3,12,25,00,009,,28,,,37,31,,,44,49,32,185,*78
$GLGSV,3,1,09,67,51,041,44,68,72,248,32,69,21,232,28,75,04,340,*6E
$GLGSV,3,2,09,76,13,033,27,77,06,076,,82,33,161,22,83,78,245,44*67
$GLGSV,3,3,09,84,32,322,29*59
$GNGLL,5019.79171,N,00845.51674,E,054634.00,A,A*7B
$GNRMC,054635.00,A,5019.79216,N,00845.51792,E,3.392,68.31,211025,,,A*44
$GNVTG,68.31,T,,M,3.392,N,6.283,K,A*1B
$GNGGA,054635.00,5019.79216,N,00845.51792,E,1,12,1.03,158.6,M,47.4,M,,*48
$GNGSA,A,3,03,01,04,17,06,19,09,,,,,,2.07,1.03,1.80*15
$GNGSA,A,3,83,67,68,84,82,,,,,,,,2.07,1.03,1.80*10
$GPGSV,3,1,12,01,47,140,37,02,18,143,38,03,74,053,41,04,64,179,39*7D
$GPGSV,3,2,12,06,27,308,34,09,28,212,21,17,39,253,34,19,38,283,34*77
$GPGSV,3,3,12,25,00,009,,28,,,34,31,,,41,49,32,185,*7E
$GLGSV,3,1,09,67,51,041,42,68,72,248,39,69,21,232,28,75,04,340,*63
$GLGSV,3,2,09,76,13,033,25,77,06,076,,82,33,161,33,83,78,245,46*67
$GLGSV,3,3,09,84,32,322,37*56
$GNGLL,5019.79216,N,00845.51792,E,054635.00,A,A*71
$GNRMC,054636.00,A,5019.79229,N,00845.51920,E,3.155,78.81,211025,,,A*4F
$GNVTG,78.81,T,,M,3.155,N,5.842,K,A*1C
$GNGGA,054636.00,5019.79229,N,00845.51920,E,1,12,1.01,159.0,M,47.4,M,,*45
$GNGSA,A,3,03,01,04,17,06,19,09,,,,,,1.99,1.01,1.72*1E
$GNGSA,A,3,83,67,68,84,82,,,,,,,,1.99,1.01,1.72*1B
$GPGSV,3,1,12,01,47,140,36,02,18,143,37,03,74,053,41,04,64,179,37*7D
$GPGSV,3,2,12,06,27,308,29,09,28,212,20,17,39,253,30,19,38,283,28*73
$GPGSV,3,3,12,25,00,009,,28,,,28,31,,,39,49,32,185,*7C
$GLGSV,3,1,09,67,51,041,41,68,72,248,36,69,21,232,26,75,04,340,*61
$GLGSV,3,2,09,76,13,033,24,77,06,076,,82,33,161,33,83,78,245,44*64
$GLGSV,3,3,09,84,32,322,36*57
$GNGLL,5019.79229,N,00845.51920,E,054636.00,A,A*79
$GNRMC,054637.00,A,5019.79194,N,00845.52062,E,3.245,99.37,211025,,,A*47
$GNVTG,99.37,T,,M,3.245,N,6.010,K,A*10
$GNGGA,054637.00,5019.79194,N,00845.52062,E,1,12,1.01,158.6,M,47.4,M,,*4A
$GNGSA,A,3,03,01,04,17,06,19,09,,,,,,1.99,1.01,1.72*1E
$GNGSA,A,3,83,67,68,84,82,,,,,,,,1.99,1.01,1.72*1B
$GPGSV,3,1,12,01,47,140,39,02,18,143,39,03,74,053,40,04,64,179,38*72
$GPGSV,3,2,12,06,27,308,26,09,28,212,21,17,39,253,34,19,38,283,30*70
$GPGSV,3,3,12,25,00,009,,28,,,25,31,,,39,49,32,185,*71
$GLGSV,3,1,09,67,51,041,44,68,72,248,35,69,21,232,22,75,04,340,*63
$GLGSV,3,2,09,76,13,033,22,77,06,076,,82,33,161,37,83,78,245,41*63
$GLGSV,3,3,09,84,32,322,35*54
$GNGLL,5019.79194,N,00845.52062,E,054637.00,A,A*71
$GNRMC,054638.00,A,5019.79155,N,00845.52166,E,3.381,109.62,211025,,,A*71
$GNVTG,109.62,T,,M,3.381,N,6.261,K,A*25
$GNGGA,054638.00,5019.79155,N,00845.52166,E,1,12,1.01,159.2,M,47.4,M,,*48
$GNGSA,A,3,03,01,04,17,06,19,09,,,,,,1.99,1.01,1.72*1E
$GNGSA,A,3,83,67,68,84,82,,,,,,,,1.99,1.01,1.72*1B
$GPGSV,3,1,12,01,47,140,43,02,18,143,44,03,74,053,45,04,64,179,42*7D
$GPGSV,3,2,12,06,27,308,30,09,28,212,23,17,39,253,40,19,38,283,39*7F
$GPGSV,3,3,12,25,00,009,,28,,,27,31,,,34,49,32,185,*7E
$GLGSV,3,1,09,67,51,041,36,68,72,248,30,69,21,232,19,75,04,340,*6B
$GLGSV,3,2,09,76,13,033,20,77,06,076,,82,33,161,33,83,78,245,33*60
$GLGSV,3,3,09,84,32,322,24*54
$GNGLL,5019.79155,N,00845.52166,E,054638.00,A,A*76
$GNRMC,054639.00,A,5019.79090,N,00845.52297,E,3.073,115.59,211025,,,A*7E
$GNVTG,115.59,T,,M,3.073,N,5.692,K,A*25
$GNGGA,054639.00,5019.79090,N,00845.52297,E,1,12,1.01,159.3,M,47.4,M,,*4D
$GNGSA,A,3,03,01,04,17,06,19,09,,,,,,1.99,1.01,1.72*1E
$GNGSA,A,3,83,67,68,84,82,,,,,,,,1.99,1.01,1.72*1B
$GPGSV,3,1,12,01,47,140,50,02,18,143,50,03,74,053,49,04,64,179,47*73
$GPGSV,3,2,12,06,27,308,33,09,28,212,23,17,39,253,40,19,38,283,41*73
$GPGSV,3,3,12,25,00,009,,28,,,36,31,,,29,49,32,185,*72
$GLGSV,3,1,09,67,51,041,41,68,72,248,32,69,21,232,20,75,04,340,*63
$GLGSV,3,2,09,76,13,033,19,77,06,076,,82,33,161,34,83,78,245,37*69
$GLGSV,3,3,09,84,32,322,26*56
$GNGLL,5019.79090,N,00845.52297,E,054639.00,A,A*72
$GNRMC,054640.00,A,5019.79048,N,00845.52395,E,2.562,117.57,211025,,,A*7E
$GNVTG,117.57,T,,M,2.562,N,4.744,K,A*26
$GNGGA,054640.00,5019.79048,N,00845.52395,E,1,12,1.01,159.3,M,47.4,M,,*45
$GNGSA,A,3,03,01,04,17,06,19,09,,,,,,1.99,1.01,1.72*1E
$GNGSA,A,3,83,67,68,84,82,,,,,,,,1.99,1.01,1.72*1B
$GPGSV,3,1,12,01,47,140,41,02,18,143,33,03,74,053,29,04,64,179,36*76
$GPGSV,3,2,12,06,27,308,25,09,28,212,29,17,39,253,30,19,38,283,31*7E
$GPGSV,3,3,12,25,00,009,,28,,,26,31,,,28,49,32,185,33*72
$GLGSV,3,1,09,67,51,041,33,68,72,248,30,69,21,232,19,75,04,340,*6E
$GLGSV,3,2,09,76,13,033,21,77,06,076,,82,33,161,37,83,78,245,27*60
$GLGSV,3,3,09,84,32,322,25*55
$GNGLL,5019.79048,N,00845.52395,E,054640.00,A,A*7A
$GNRMC,054641.00,A,5019.78974,N,00845.52496,E,3.197,138.97,211025,,,A*72
$GNVTG,138.97,T,,M,3.197,N,5.921,K,A*24
$GNGGA,054641.00,5019.78974,N,00845.52496,E,1,11,1.09,159.0,M,47.4,M,,*4F
$GNGSA,A,3,03,01,04,17,06,19,,,,,,,2.12,1.09,1.81*13
$GNGSA,A,3,83,67,68,84,82,,,,,,,,2.12,1.09,1.81*1F
$GPGSV,3,1,12,01,47,140,37,02,18,143,31,03,74,053,40,04,64,179,37*7B
$GPGSV,3,2,12,06,27,308,36,09,28,212,,17,39,253,34,19,38,283,39*7B
$GPGSV,3,3,12,25,00,009,,28,,,32,31,,,27,49,32,185,41*7D
$GLGSV,3,1,09,67,51,041,41,68,72,248,38,69,21,232,19,75,04,340,*63
$GLGSV,3,2,09,76,13,033,21,77,06,076,,82,33,161,39,83,78,245,39*61
$GLGSV,3,3,09,84,32,322,32*53
$GNGLL,5019.78974,N,00845.52496,E,054641.00,A,A*78
$GNRMC,054642.00,A,5019.78902,N,00845.52568,E,2.877,146.81,211025,,,A*78
$GNVTG,146.81,T,,M,2.877,N,5.328,K,A*2F
$GNGGA,054642.00,5019.78902,N,00845.52568,E,1,11,1.09,159.0,M,47.4,M,,*4D
$GNGSA,A,3,03,01,04,17,06,19,,,,,,,2.12,1.09,1.81*13
$GNGSA,A,3,83,67,68,84,82,,,,,,,,2.12,1.09,1.81*1F
$GPGSV,3,1,12,01,47,140,40,02,18,143,37,03,74,053,41,04,64,179,40*7C
$GPGSV,3,2,12,06,27,308,36,09,28,212,22,17,39,253,38,19,38,283,37*79
$GPGSV,3,3,12,25,00,009,,28,,,28,31,,,31,49,32,185,42*72
$GLGSV,3,1,09,67,51,041,32,68,73,249,30,69,21,232,20,75,04,340,*65
$GLGSV,3,2,09,76,13,033,20,77,06,076,,82,33,161,37,83,78,245,33*64
$GLGSV,3,3,09,84,32,322,27*57
$GNGLL,5019.78902,N,00845.52568,E,054642.00,A,A*7A
$GNRMC,054643.00,A,5019.78827,N,00845.52595,E,3.012,170.53,211025,,,A*7D
$GNVTG,170.53,T,,M,3.012,N,5.579,K,A*2D
$GNGGA,054643.00,5019.78827,N,00845.52595,E,1,12,1.01,158.8,M,47.4,M,,*4A
$GNGSA,A,3,03,01,04,17,06,19,09,,,,,,1.99,1.01,1.72*1E
$GNGSA,A,3,83,67,68,84,82,,,,,,,,1.99,1.01,1.72*1B
$GPGSV,3,1,12,01,47,140,45,02,18,143,37,03,74,053,49,04,65,179,46*76
$GPGSV,3,2,12,06,27,308,44,09,28,212,31,17,39,253,41,19,38,283,44*74
$GPGSV,3,3,12,25,00,009,,28,,,33,31,,,41,49,32,185,46*7B
$GLGSV,3,1,09,67,51,041,29,68,73,249,31,69,22,232,19,75,04,340,*67
$GLGSV,3,2,09,76,13,033,19,77,06,076,,82,33,161,38,83,78,245,33*61
$GLGSV,3,3,09,84,32,322,34*55
$GNGLL,5019.78827,N,00845.52595,E,054643.00,A,A*7F
$GNRMC,054644.00,A,5019.78755,N,00845.52588,E,2.698,180.91,211025,,,A*78
$GNVTG,180.91,T,,M,2.698,N,4.998,K,A*2B
$GNGGA,054644.00,5019.78755,N,00845.52588,E,1,12,1.01,159.2,M,47.4,M,,*40
$GNGSA,A,3,03,01,04,17,06,19,09,,,,,,1.99,1.01,1.72*1E
$GNGSA,A,3,83,67,68,84,82,,,,,,,,1.99,1.01,1.72*1B
$GPGSV,3,1,12,01,47,140,43,02,18,143,43,03,74,053,46,04,65,179,43*79
$GPGSV,3,2,12,06,27,308,33,09,28,212,34,17,39,253,33,19,38,283,45*75
$GPGSV,3,3,12,25,00,009,,28,,,29,31,,,43,49,32,185,38*7B
$GLGSV,3,1,09,67,51,041,28,68,73,249,30,69,22,232,18,75,04,340,*66
$GLGSV,3,2,09,76,13,033,24,77,06,076,,82,33,161,35,83,78,245,32*63
$GLGSV,3,3,09,84,32,322,30*51
$GNGLL,5019.78755,N,00845.52588,E,054644.00,A,A*7E
$GNRMC,054645.00,A,5019.78710,N,00845.52569,E,1.659,181.85,211025,,,A*7D
$GNVTG,181.85,T,,M,1.659,N,3.073,K,A*2A
$GNGGA,054645.00,5019.78710,N,00845.52569,E,1,12,1.01,159.4,M,47.4,M,,*49
$GNGSA,A,3,03,01,04,17,06,19,09,,,,,,1.99,1.01,1.72*1E
$GNGSA,A,3,83,67,68,84,82,,,,,,,,1.99,1.01,1.72*1B
$GPGSV,3,1,12,01,47,140,41,02,18,143,40,03,74,053,41,04,65,179,40*7C
$GPGSV,3,2,12,06,27,308,33,09,28,212,26,17,39,253,27,19,38,283,34*75
$GPGSV,3,3,12,25,00,009,,28,,,33,31,,,40,49,32,185,31*7A
$GLGSV,3,1,09,67,51,041,26,68,73,249,33,69,22,232,20,75,04,340,*60
$GLGSV,3,2,09,76,13,033,31,77,06,076,,82,33,161,39,83,78,245,32*6B
$GLGSV,3,3,09,84,32,322,36*57
$GNGLL,5019.78710,N,00845.52569,E,054645.00,A,A*71
$GNRMC,054646.00,A,5019.78688,N,00845.52573,E,0.251,,211025,,,A*63
$GNVTG,,T,,M,0.251,N,0.464,K,A*3D
$GNGGA,054646.00,5019.78688,N,00845.52573,E,1,12,1.01,159.0,M,47.4,M,,*45
$GNGSA,A,3,03,01,04,17,06,19,09,,,,,,1.99,1.01,1.72*1E
$GNGSA,A,3,83,67,68,84,82,,,,,,,,1.99,1.01,1.72*1B
$GPGSV,3,1,12,01,47,140,45,02,18,143,40,03,74,053,43,04,65,179,44*7E
$GPGSV,3,2,12,06,27,308,33,09,28,212,28,17,39,253,27,19,38,283,34*7B
$GPGSV,3,3,12,25,00,009,,28,,,38,31,,,43,49,32,185,32*71
$GLGSV,3,1,09,67,51,041,37,68,73,249,37,69,22,232,20,75,04,340,*64
$GLGSV,3,2,09,76,13,033,26,77,06,076,,82,33,161,40,83,78,245,39*68
$GLGSV,3,3,09,84,32,322,36*57
$GNGLL,5019.78688,N,00845.52573,E,054646.00,A,A*79
$GNRMC,054647.00,A,5019.78682,N,00845.52588,E,0.043,,211025,,,A*6D
$GNVTG,,T,,M,0.043,N,0.080,K,A*32
$GNGGA,054647.00,5019.78682,N,00845.52588,E,1,12,1.01,158.4,M,47.4,M,,*4F
$GNGSA,A,3,03,01,04,17,06,19,09,,,,,,1.99,1.01,1.72*1E
$GNGSA,A,3,83,67,68,84,82,,,,,,,,1.99,1.01,1.72*1B
$GPGSV,3,1,12,01,47,140,44,02,18,143,44,03,74,053,42,04,65,179,42*7C
$GPGSV,3,2,12,06,27,308,29,09,28,212,29,17,39,253,31,19,38,283,34*76
$GPGSV,3,3,12,25,00,009,,28,,,37,31,,,42,49,32,185,34*79
$GLGSV,3,1,09,67,51,041,36,68,73,249,37,69,22,232,22,75,04,340,*67
$GLGSV,3,2,09,76,13,033,27,77,06,076,,82,33,161,40,83,78,245,37*67
$GLGSV,3,3,09,84,32,322,35*54
$GNGLL,5019.78682,N,00845.52588,E,054647.00,A,A*76
$GNRMC,054648.00,A,5019.78684,N,00845.52592,E,0.086,,211025,,,A*66
$GNVTG,,T,,M,0.086,N,0.159,K,A*3E
$GNGGA,054648.00,5019.78684,N,00845.52592,E,1,12,1.01,158.2,M,47.4,M,,*4B
$GNGSA,A,3,03,01,04,17,06,19,09,,,,,,1.99,1.01,1.72*1E
$GNGSA,A,3,83,67,68,84,82,,,,,,,,1.99,1.01,1.72*1B
$GPGSV,3,1,12,01,47,140,44,02,18,143,44,03,74,053,41,04,65,179,41*7C
$GPGSV,3,2,12,06,27,308,28,09,28,212,28,17,39,253,31,19,38,283,33*71
$GPGSV,3,3,12,25,00,009,,28,,,37,31,,,42,49,32,185,33*7E
$GLGSV,3,1,09,67,51,041,36,68,73,249,36,69,22,232,22,75,04,340,*66
$GLGSV,3,2,09,76,13,033,26,77,06,076,,82,33,161,38,83,78,245,37*69
$GLGSV,3,3,09,84,32,322,36*57
$GNGLL,5019.78684,N,00845.52592,E,054648.00,A,A*74
